location_name,target_lat,target_lng,analysis_radius_km,nearby_construction_count,weighted_construction_risk,nearby_sinkhole_count,weighted_sinkhole_risk,avg_daily_visitors,total_daily_visitors,nearby_subway_stations,avg_subway_passengers,avg_rainfall,weighted_rainfall_risk,rainfall_amplification_factor,ongoing_construction_count,recent_sinkhole_count,population_density_score,total_subway_passengers,subway_congestion_risk,physical_risk_score,social_risk_score,final_risk_score,comprehensive_risk_level,comprehensive_risk_category,construction_rainfall_interaction,population_physical_interaction,subway_population_ratio,risk_density,activity_density,distance_from_center,total_infrastructure_risk,total_mobility_volume
4.19민주묘지역,37.6495,127.0137,0.2,0,0.0,1,0.19999999999999998,0.0,0,2463,6059.691027202599,0.0,0.0,1.0,0,0,0.0,14925019,0.12119382054405198,1.7999999999999998,1.454325846528624,1.679014046285018,매우낮음,최저위험,0.0,0.0,14925019.0,13.361169249349247,118769527.47952282,0.09035203373472739,1,14925019
가락시장역,37.4931,127.1183,0.2,0,0.0,17,0.8818959800487703,0.0,0,2463,32589.406414941128,0.0,0.0,1.0,0,0,0.0,80267708,0.6517881282988226,7.937063820438932,7.821457539585872,7.896601622140361,매우낮음,최저위험,0.0,0.0,80267708.0,62.83915908955588,638750124.9428436,0.15834029809244035,17,80267708
가산디지털단지역,37.4804,126.8827,0.2,2,1.0,0,0.0,0.0,0,2463,107026.06252537556,0.0,0.0,1.0,0,0,0.0,263605192,2.1405212505075113,12.0,25.686255006090136,16.790189252131547,낮음,하위험,0.0,0.0,263605192.0,133.61208074625745,2097703466.574407,0.12843402975846419,2,263605192
가양역,37.5614,126.8544,0.2,0,0.0,18,0.8383943258891868,0.0,0,2463,38790.53430775477,0.0,0.0,1.0,0,0,0.0,95541086,0.7758106861550955,7.5455489330026815,9.309728233861147,8.163011688303145,매우낮음,최저위험,0.0,0.0,95541086.0,64.95918303551818,760291805.2633939,0.12370517369940126,18,95541086
가오리역,37.6415,127.0168,0.2,0,0.0,1,1.0,0.0,0,2463,7719.689809175802,0.0,0.0,1.0,0,0,0.0,19013596,0.15439379618351604,9.0,1.8527255542021925,6.498453943970768,매우낮음,최저위험,0.0,0.0,19013596.0,51.71305338189852,151305389.46761444,0.08444193271118994,1,19013596
가좌역,37.5688,126.9148,0.2,0,0.0,2,0.2,0.0,0,2463,10143.793747462445,0.0,0.0,1.0,0,0,0.0,24984164,0.2028758749492489,1.7999999999999998,2.434510499390987,2.0220786747868456,매우낮음,최저위험,0.0,0.0,24984164.0,16.091190820651775,198817659.980929,0.0632418374179575,2,24984164
낙성대역,37.4771,126.9635,0.2,0,0.0,30,0.5523348469484566,0.0,0,2463,52351.57856272838,0.0,0.0,1.0,0,0,0.0,128941938,1.0470315712545675,4.971013622536109,12.564378855054809,7.628691453917654,매우낮음,최저위험,0.0,0.0,128941938.0,60.70719771069462,1026087340.2274348,0.09056826154895288,30,128941938
남구로역,37.4863,126.8874,0.2,0,0.0,29,1.0,0.0,0,2463,29081.35282176208,0.0,0.0,1.0,0,0,0.0,71627372,0.5816270564352416,9.0,6.9795246772229,8.292833637028014,매우낮음,최저위험,0.0,0.0,71627372.0,65.99227327858745,569992515.7241008,0.12099752063574992,29,71627372
남부터미널역,37.4852,127.0162,0.2,5,1.0,16,0.6087577357279855,0.0,0,2463,58892.37190418189,0.0,0.0,1.0,0,0,0.0,145051912,1.177847438083638,17.478819621551867,14.134169257003656,16.308191993959994,낮음,하위험,0.0,0.0,145051912.0,129.7764684365203,1154286439.9865305,0.08982722304513294,21,145051912
남성역,37.4848,126.9709,0.2,0,0.0,6,1.0,0.0,0,2463,20714.04953308973,0.0,0.0,1.0,0,0,0.0,51018704,0.4142809906617946,9.0,4.971371887941535,7.589980160779537,매우낮음,최저위험,0.0,0.0,51018704.0,60.39914302787409,405993946.5871126,0.08200792644616477,6,51018704
남영역,37.5406,126.9713,0.2,0,0.0,18,0.8330507238900081,0.0,0,2463,18974.99959399107,0.0,0.0,1.0,0,0,0.0,46735424,0.3794999918798214,7.497456515010073,4.553999902557857,6.467246700651797,매우낮음,최저위험,0.0,0.0,46735424.0,51.46471403017423,371908687.35477996,0.02675256997000354,18,46735424
남태령역,37.4642,126.9891,0.2,0,0.0,5,0.670543973875513,0.0,0,2463,2690.5501421031263,0.0,0.0,1.0,0,0,0.0,6626825,0.05381100284206253,6.034895764879617,0.6457320341047503,4.148688459108414,매우낮음,최저위험,0.0,0.0,6626825.0,33.01421378077013,52734597.787747465,0.10290043731685448,5,6626825
내방역,37.4877,126.9936,0.2,0,0.0,25,0.5473208319339209,0.0,0,2463,26246.13317092976,0.0,0.0,1.0,0,0,0.0,64644226,0.5249226634185952,4.925887487405288,6.2990719610231425,5.406502053171537,매우낮음,최저위험,0.0,0.0,64644226.0,43.02357632993656,514422405.51248103,0.08032932216818693,25,64644226
노들역,37.5127,126.9531,0.2,0,0.0,27,0.4917698376741302,0.0,0,2463,8246.055217214778,0.0,0.0,1.0,0,0,0.0,20310034,0.16492110434429558,4.425928539067172,1.9790532521315471,3.569522188639703,매우낮음,최저위험,0.0,0.0,20310034.0,28.40535503991048,161622115.27322295,0.05928279683010001,27,20310034
노량진역,37.5136,126.9409,0.2,0,0.0,23,0.6817673548899449,0.0,0,2463,69900.80349167682,3.6107431651906046,0.04113209247457349,1.0,0,0,0.0,172165679,1.3980160698335364,6.506095026280666,16.776192838002437,10.100629260383286,낮음,하위험,0.0,0.0,172165679.0,80.37825375643173,1370050942.1811259,0.06461284701976658,23,172165679
노원역,37.6563,127.0634,0.2,1,1.0,2,0.2,0.0,0,2463,83093.5347137637,0.0,0.0,1.0,0,0,0.0,204659376,1.661870694275274,13.8,19.942448331303286,15.949856915956152,낮음,하위험,0.0,0.0,204659376.0,126.92492848914372,1628627567.0251405,0.12392417036237079,3,204659376
녹번역,37.6008,126.9358,0.2,0,0.0,9,0.8015036776939756,0.0,0,2463,25941.53430775477,0.0,0.0,1.0,0,0,0.0,63893999,0.5188306861550954,7.21353309924578,6.2259682338611455,6.8678853963611575,매우낮음,최저위험,0.0,0.0,63893999.0,54.65289547097595,508452288.73793083,0.054381338710991815,9,63893999
녹사평역,37.5347,126.9865,0.2,1,1.0,22,0.6938749577552077,0.0,0,2463,10757.268777913114,0.0,0.0,1.0,0,0,0.0,26495153,0.21514537555826227,18.244874619796867,2.5817445066991476,12.762779080212667,낮음,하위험,0.0,0.0,26495153.0,101.56296891028396,210841728.396303,0.03291640928169432,23,26495153
녹천역,37.6446,127.0514,0.2,0,0.0,0,0.0,0.0,0,2463,8119.1628095818105,0.0,0.0,1.0,0,0,0.0,19997498,0.1623832561916362,0.0,1.9485990742996346,0.6820096760048721,매우낮음,최저위험,0.0,0.0,19997498.0,5.427260558633869,159135032.80851454,0.10717821607024831,0,19997498
논현역,37.5112,127.0217,0.2,0,0.0,17,0.6947216581771515,0.0,0,2463,35463.638652050344,0.0,0.0,1.0,0,0,0.0,87346942,0.7092727730410069,6.252494923594363,8.511273276492082,7.043067347108566,매우낮음,최저위험,0.0,0.0,87346942.0,56.046949141072496,695084879.1630541,0.07048248009257053,17,87346942
답십리역,37.567,127.0526,0.2,0,0.0,1,1.0,0.0,0,2463,28400.032886723508,0.0,0.0,1.0,0,0,0.0,69949281,0.5680006577344702,9.0,6.8160078928136425,8.235602762484774,매우낮음,최저위험,0.0,0.0,69949281.0,65.536844449536,556638691.8436998,0.07460167558440337,1,69949281
당고개역,37.6702,127.0791,0.2,0,0.0,9,0.20000000000000004,0.0,0,2463,20342.386520503453,0.0,0.0,1.0,0,0,0.0,50103298,0.40684773041006905,1.8000000000000003,4.882172764920829,2.87876046772229,매우낮음,최저위험,0.0,0.0,50103298.0,22.90844792077695,398709377.09531367,0.14482713834085517,9,50103298
당곡역,37.4902,126.9276,0.2,1,2.0,14,0.5469523355105504,0.0,0,1100,8440.907272727272,0.0,0.0,1.0,0,0,0.0,9284998,0.16881814545454546,28.922571019594955,2.0258177454545456,19.508707373645812,낮음,하위험,0.0,0.0,9284998.0,155.2453605924519,73887666.4149181,0.0914431517392038,15,9284998
당산역,37.5348,126.9026,0.2,0,0.0,260,0.4812735366678554,0.0,0,2463,72883.85140073081,0.0,0.0,1.0,0,0,0.0,179512926,1.4576770280146163,4.331461830010698,17.492124336175397,8.937693707168343,매우낮음,최저위험,0.0,0.0,179512926.0,71.12390666685843,1428518476.0894809,0.08179272583792639,260,179512926
대림역,37.4933,126.8949,0.2,0,0.0,13,0.4402122470951838,0.0,0,2463,67294.59033698741,0.0,0.0,1.0,0,0,0.0,165746576,1.3458918067397483,3.9619102238566537,16.150701680876978,8.227987233813767,매우낮음,최저위험,0.0,0.0,165746576.0,65.47624199792357,1318969343.547825,0.11074226835313568,13,165746576
대모산입구역,37.4916,127.0731,0.2,0,0.0,4,1.0,0.0,0,2463,7981.003654080389,0.0,0.0,1.0,0,0,0.0,19657212,0.15962007308160778,9.0,1.9154408769792934,6.520404306942753,매우낮음,최저위험,0.0,0.0,19657212.0,51.887728820381156,156427122.8602661,0.12105378969697869,4,19657212
대방역,37.5134,126.9265,0.2,0,0.0,20,0.5188836538391755,0.0,0,2463,25670.43036946813,0.0,0.0,1.0,0,0,0.0,63226270,0.5134086073893626,4.669952884552579,6.160903288672351,5.191785525994499,매우낮음,최저위험,0.0,0.0,63226270.0,41.314916496749014,503138670.18814045,0.07397202173794525,20,63226270
대청역,37.4937,127.0795,0.2,0,0.0,0,0.0,0.0,0,2463,18154.409663012586,0.0,0.0,1.0,0,0,0.0,44714311,0.3630881932602517,0.0,4.357058319123021,1.5249704116930571,매우낮음,최저위험,0.0,0.0,44714311.0,12.135328954491635,355825181.1299155,0.12490832638379407,0,44714311
대치역,37.4945,127.0632,0.2,0,0.0,5,1.0,0.0,0,2463,22281.474624441737,0.0,0.0,1.0,0,0,0.0,54879272,0.4456294924888347,9.0,5.347553909866017,7.721643868453106,매우낮음,최저위험,0.0,0.0,54879272.0,61.44688952297683,436715370.60423225,0.11154837515624974,5,54879272
대흥역,37.5476,126.9425,0.2,0,0.0,21,0.4026084275578389,0.0,0,2463,16738.54202192448,0.0,0.0,1.0,0,0,0.0,41227029,0.3347708404384896,3.62347584802055,4.0172500852618755,3.7612968310550134,매우낮음,최저위험,0.0,0.0,41227029.0,29.931449154914343,328074272.7171459,0.0402176578134498,21,41227029
도곡역,37.491,127.0555,0.2,0,0.0,1,1.0,0.0,0,2463,23192.15915550142,0.0,0.0,1.0,0,0,0.0,57122288,0.4638431831100284,9.0,5.566118197320341,7.798141369062121,매우낮음,최저위험,0.0,0.0,57122288.0,62.055637290781824,454564724.7959428,0.10819658035261467,1,57122288
도림천역,37.5145,126.8826,0.2,0,0.0,10,0.5871547580409938,0.0,0,2463,2412.859114900528,0.0,0.0,1.0,0,0,0.0,5942872,0.048257182298010556,5.284392822368944,0.5790861875761267,3.637535500191458,매우낮음,최저위험,0.0,0.0,5942872.0,28.94658777638603,47291872.74812091,0.10865155314122096,10,5942872
도봉산역,37.6895,127.0461,0.2,0,0.0,4,0.7757716865111554,0.0,0,2463,32351.1071863581,0.0,0.0,1.0,0,0,0.0,79680777,0.6470221437271619,6.981945178600398,7.764265724725944,7.255757369744339,매우낮음,최저위험,0.0,0.0,79680777.0,57.73948256351302,634079476.4476501,0.14059377653367627,4,79680777
도봉역,37.6792,127.0455,0.2,0,0.0,6,0.45682450483538567,0.0,0,2463,11210.153065367438,0.0,0.0,1.0,0,0,0.0,27610607,0.22420306130734877,4.111420543518471,2.6904367356881855,3.614076210777871,매우낮음,최저위험,0.0,0.0,27610607.0,28.759904682806237,219718229.29088435,0.13136795651909244,6,27610607
독립문역,37.5745,126.9579,0.2,1,1.0,1,1.0,0.0,0,2463,14906.756800649615,0.0,0.0,1.0,0,0,0.0,36715342,0.2981351360129923,21.0,3.577621632155908,14.902167571254566,낮음,하위험,0.0,0.0,36715342.0,118.58768158744542,292171408.3304737,0.021633538776631444,2,36715342
독바위역,37.6184,126.9331,0.2,0,0.0,0,0.0,0.0,0,2463,5435.654892407633,0.0,0.0,1.0,0,0,0.0,13388018,0.10871309784815267,0.0,1.3045571741778321,0.4565950109622412,매우낮음,최저위험,0.0,0.0,13388018.0,3.633467649286941,106538462.14516352,0.06862667120005317,0,13388018
독산역,37.466,126.8895,0.2,0,0.0,6,0.20000000000000004,0.0,0,2463,31301.424685343078,0.0,0.0,1.0,0,0,0.0,77095409,0.6260284937068615,1.8000000000000003,7.512341924482338,3.799319673568819,매우낮음,최저위험,0.0,0.0,77095409.0,30.234025321738187,613505771.6020697,0.13391228472398892,6,77095409
돌곶이역,37.6105,127.0564,0.2,0,0.0,10,0.44234435683867096,0.0,0,2463,17005.388550548112,0.0,0.0,1.0,0,0,0.0,41884272,0.34010777101096223,3.981099211548038,4.081293252131547,4.016167125752267,매우낮음,최저위험,0.0,0.0,41884272.0,31.959642517332142,333304446.3302733,0.089903058902357,10,41884272
동대문역,37.5717,127.0106,0.2,2,1.0,8,0.8514132460103163,0.0,0,2463,64553.44417377182,0.0,0.0,1.0,0,0,0.0,158995133,1.2910688834754365,19.662719214092846,15.49282660170524,18.203256799757185,낮음,하위험,0.0,0.0,158995133.0,144.85691500262556,1265243067.2251666,0.03301211898682307,10,158995133
동대문역사문화공원역,37.5657,127.009,0.2,0,0.0,1,1.0,0.0,0,2463,70407.03248071458,0.0,0.0,1.0,0,0,0.0,173412521,1.4081406496142916,9.0,16.8976877953715,11.764190728380026,낮음,하위험,0.0,0.0,173412521.0,93.61645529487629,1379972995.558855,0.03101032086258321,1,173412521
동대입구역,37.5591,127.0053,0.2,1,1.0,0,0.0,0.0,0,2463,20415.893625659766,0.0,0.0,1.0,0,0,0.0,50284346,0.40831787251319535,12.0,4.899814470158344,9.51493506455542,매우낮음,최저위험,0.0,0.0,50284346.0,75.71744743611987,400150111.3021587,0.02828515511713794,1,50284346
동묘앞역,37.5732,127.0164,0.2,1,1.0,7,0.8723238894370859,0.0,0,2463,36582.74949248884,0.0,0.0,1.0,0,0,0.0,90103312,0.7316549898497767,19.850915004933775,8.779859878197321,15.976045710576017,낮음,하위험,0.0,0.0,90103312.0,127.13333229501222,717019374.6875645,0.03898012313988753,8,90103312
동작역,37.5027,126.9785,0.2,0,0.0,5,0.5393958518444854,0.0,0,2463,7470.553796183516,0.0,0.0,1.0,0,0,0.0,18399974,0.1494110759236703,4.854562666600368,1.792932911084044,3.782992252169654,매우낮음,최저위험,0.0,0.0,18399974.0,30.104095830557114,146422340.7431177,0.06380195921756689,5,18399974
둔촌동역,37.5277,127.1362,0.2,0,0.0,7,0.877400683521029,0.0,0,2463,17060.311408850994,0.0,0.0,1.0,0,0,0.0,42019547,0.3412062281770199,7.89660615168926,4.094474738124239,6.565860156941503,매우낮음,최저위험,0.0,0.0,42019547.0,52.249454981368395,334380930.57661104,0.1628885508561056,7,42019547
둔촌오륜역,37.5194,127.1387,0.2,0,0.0,8,0.914859965740036,0.0,0,2129,2349.7787693752935,0.0,0.0,1.0,0,0,0.0,5002679,0.04699557538750587,8.233739691660324,0.5639469046500705,5.549312216206736,매우낮음,최저위험,0.0,0.0,5002679.0,44.16002349847713,39810054.57760099,0.16746014451206545,8,5002679
등촌역,37.5507,126.8656,0.2,0,0.0,19,0.6183936653626673,0.0,0,2463,20527.538773853026,0.0,0.0,1.0,0,0,0.0,50559328,0.41055077547706054,5.565542988264005,4.926609305724726,5.341916199375258,매우낮음,최저위험,0.0,0.0,50559328.0,42.50961843566215,402338348.5302235,0.11350506596623154,19,50559328
디지털미디어시티역,37.576,126.9013,0.2,0,0.0,7,0.543873308929938,0.0,0,2463,54025.04141291109,0.0,0.0,1.0,0,0,0.0,133063677,1.0805008282582218,4.894859780369442,12.966009939098662,7.719762335924669,매우낮음,최저위험,0.0,0.0,133063677.0,61.43191676285238,1058887097.0266671,0.07728609189238543,7,133063677
뚝섬역,37.5472,127.0474,0.2,0,0.0,0,0.0,0.0,0,2463,40873.795777507105,0.0,0.0,1.0,0,0,0.0,100672159,0.8174759155501421,0.0,9.809710986601704,3.4333988453105966,매우낮음,최저위험,0.0,0.0,100672159.0,27.322119891859355,801123586.8291619,0.07203367268160274,0,100672159
뚝섬유원지역,37.5316,127.0668,0.2,0,0.0,12,0.801186129229454,0.0,0,2463,17879.06780349168,0.0,0.0,1.0,0,0,0.0,44036144,0.35758135606983354,7.210675163065085,4.2909762728380025,6.188780551485607,매우낮음,최저위험,0.0,0.0,44036144.0,49.24875082399602,350428499.6153254,0.09541200134155624,12,44036144
마곡나루역,37.5667,126.8274,0.2,0,0.0,5,0.8400000000000001,0.0,0,2463,34083.61266747869,0.0,0.0,1.0,0,0,0.0,83947938,0.6816722533495737,7.5600000000000005,8.180067040194885,7.777023464068209,매우낮음,최저위험,0.0,0.0,83947938.0,61.88758634240553,668036464.7535979,0.15060013280206347,5,83947938
마곡역,37.5602,126.8247,0.2,0,0.0,15,0.38651454756011133,0.0,0,2463,17360.050751116523,0.0,0.0,1.0,0,0,0.0,42757805,0.3472010150223305,3.4786309280410017,4.166412180267966,3.7193543663204394,매우낮음,최저위험,0.0,0.0,42757805.0,29.597681625516095,340255801.0754679,0.15342939744389297,15,42757805
마들역,37.6652,127.0577,0.2,0,0.0,1,1.0,0.0,0,2463,22854.547706049532,0.0,0.0,1.0,0,0,0.0,56290751,0.45709095412099066,9.0,5.485091449451888,7.7697820073081605,매우낮음,최저위험,0.0,0.0,56290751.0,61.82996066047813,447947563.6002525,0.12686126280311333,1,56290751
마장역,37.5661,127.043,0.2,1,3.0,5,0.20000000000000004,0.0,0,2463,10814.503857084856,0.0,0.0,1.0,1,0,0.0,26636123,0.21629007714169712,37.800000000000004,2.595480925700366,25.478418323995133,보통,중위험,0.0,0.0,26636123.0,202.7508109213474,211963532.01268622,0.06500123075759066,6,26636123
마천역,37.495,127.1529,0.2,0,0.0,1,0.4,0.0,0,2463,11912.315468940316,0.0,0.0,1.0,0,0,0.0,29340033,0.23824630937880634,3.5999999999999996,2.858955712545676,3.3406344993909864,매우낮음,최저위험,0.0,0.0,29340033.0,26.583924682069735,233480564.12146655,0.18895041677647303,1,29340033
마포구청역,37.5635,126.9034,0.2,0,0.0,26,0.5421964964764272,0.0,0,2463,25392.293138449048,0.0,0.0,1.0,0,0,0.0,62541218,0.5078458627689809,4.879768468287844,6.094150353227771,5.304802128016818,매우낮음,최저위험,0.0,0.0,62541218.0,42.214274039914095,497687199.584391,0.07466029734737495,26,62541218
마포역,37.5396,126.9459,0.2,0,0.0,18,0.6179143580103531,0.0,0,2463,26291.586682907026,0.0,0.0,1.0,0,0,0.0,64756178,0.5258317336581405,5.561229222093178,6.309980803897687,5.823292275724755,매우낮음,최저위험,0.0,0.0,64756178.0,46.34028753752236,515313291.22193223,0.04188102195505577,18,64756178
망우역,37.5993,127.0924,0.2,0,0.0,0,0.0,0.0,0,2463,14826.27161997564,0.0,0.0,1.0,0,0,0.0,36517107,0.2965254323995128,0.0,3.558305188794154,1.2454068160779537,매우낮음,최저위험,0.0,0.0,36517107.0,9.910632546957263,290593904.3232826,0.11900924333849404,0,36517107
망원역,37.5561,126.9101,0.2,1,1.0,0,0.0,0.0,0,2463,28844.18798213561,0.0,0.0,1.0,0,0,0.0,71043235,0.5768837596427122,12.0,6.922605115712547,10.22291179049939,낮음,하위험,0.0,0.0,71043235.0,81.35134721251981,565344101.1744573,0.06869184813352451,1,71043235
매봉역,37.4869,127.0467,0.2,0,0.0,0,0.0,0.0,0,2463,21310.043848964677,0.0,0.0,1.0,0,0,0.0,52486638,0.42620087697929354,0.0,5.1144105237515225,1.7900436833130327,매우낮음,최저위험,0.0,0.0,52486638.0,14.24471502748462,417675394.19874555,0.10514680213872803,0,52486638
먹골역,37.6106,127.0778,0.2,0,0.0,6,1.0,0.0,0,2463,19256.693463256193,0.0,0.0,1.0,0,0,0.0,47429236,0.3851338692651239,9.0,4.621606431181487,7.467562250913521,매우낮음,최저위험,0.0,0.0,47429236.0,59.42497225396636,377429867.82360363,0.1091093488203481,6,47429236
면목역,37.5887,127.0875,0.2,0,0.0,3,0.6912218686919697,0.0,0,2463,28834.118960617132,0.0,0.0,1.0,0,0,0.0,71018435,0.5766823792123427,6.220996818227727,6.9201885505481116,6.465713924539862,매우낮음,최저위험,0.0,0.0,71018435.0,51.45251658543084,565146749.0450233,0.11172774946271267,3,71018435
명동역,37.561,126.9864,0.2,0,0.0,14,0.9061400154749826,0.0,0,2463,60637.88103938287,0.0,0.0,1.0,0,0,0.0,149351101,1.2127576207876574,8.155260139274843,14.55309144945189,10.394501097836809,낮음,하위험,0.0,0.0,149351101.0,82.71681153474304,1188498299.0183456,0.010040418317984806,14,149351101
명일역,37.5514,127.144,0.2,0,0.0,2,1.0,0.0,0,2463,16218.76695087292,0.0,0.0,1.0,0,0,0.0,39946823,0.3243753390174584,9.0,3.892504068209501,7.212376423873325,매우낮음,최저위험,0.0,0.0,39946823.0,57.394267964944326,317886717.0633508,0.16668536228476563,2,39946823
목동역,37.5261,126.8646,0.2,0,0.0,35,0.4418168481521218,0.0,0,2463,33047.3946406821,0.0,0.0,1.0,0,0,0.0,81395733,0.660947892813642,3.9763516333690956,7.931374713763704,5.360609711507208,매우낮음,최저위험,0.0,0.0,81395733.0,42.658376678639556,647726662.6769053,0.12038156004970006,35,81395733
몽촌토성역,37.5178,127.1129,0.2,0,0.0,3,0.19999999999999998,0.0,0,2463,12465.51563134389,0.0,0.0,1.0,0,0,0.0,30702565,0.24931031262687778,1.7999999999999998,2.9917237515225334,2.2171033130328865,매우낮음,최저위험,0.0,0.0,30702565.0,17.643147580730083,244323249.26751086,0.14342140704929707,3,30702565
무악재역,37.5826,126.9502,0.2,0,0.0,4,1.0,0.0,0,2463,7702.127080795777,0.0,0.0,1.0,0,0,0.0,18970339,0.15404254161591555,9.0,1.8485104993909867,6.496978674786845,매우낮음,최저위험,0.0,0.0,18970339.0,51.7013135627479,150961161.19894812,0.03212553501500019,4,18970339
문래역,37.518,126.8948,0.2,0,0.0,9,0.5833022402180492,0.0,0,2463,39193.38814453918,0.0,0.0,1.0,0,0,0.0,96533315,0.7838677628907836,5.249720161962443,9.406413154689403,6.704562709416878,매우낮음,최저위험,0.0,0.0,96533315.0,53.35321482366434,768187712.7648503,0.09630415359681115,9,96533315
문정역,37.486,127.1225,0.2,0,0.0,11,1.0,0.0,0,2463,36707.86073893626,0.0,0.0,1.0,0,0,0.0,90411461,0.7341572147787252,9.0,8.809886577344702,8.933460302070646,매우낮음,최저위험,0.0,0.0,90411461.0,71.09021829948799,719471546.5155057,0.1654100964270391,11,90411461
미아사거리역,37.6133,127.0301,0.2,1,3.0,21,0.7478079924771772,0.0,0,2463,52130.33820544052,0.0,0.0,1.0,1,0,0.0,128397023,1.0426067641088104,42.7302719322946,12.511281169305725,32.15362516524849,보통,중위험,0.0,0.0,128397023.0,255.87041916866286,1021751044.4366888,0.07003320640954172,22,128397023
미아역,37.6267,127.026,0.2,0,0.0,2,0.20000000000000004,0.0,0,2463,29141.095818108,0.0,0.0,1.0,0,0,0.0,71774519,0.58282191636216,1.8000000000000003,6.9938629963459205,3.617852048721072,매우낮음,최저위험,0.0,0.0,71774519.0,28.789951846454958,571163474.344658,0.07699376598141172,2,71774519
반포역,37.5082,127.0116,0.2,0,0.0,21,0.7943235992723475,0.0,0,2463,11528.528217620787,0.0,0.0,1.0,0,0,0.0,28394765,0.23057056435241574,7.148912393451128,2.766846772228989,5.615189426023379,매우낮음,최저위험,0.0,0.0,28394765.0,44.684257677448166,225958360.38413706,0.06728930078400244,21,28394765
발산역,37.5587,126.8377,0.2,0,0.0,14,0.5081099014151907,0.0,0,2463,37632.895249695495,0.0,0.0,1.0,0,0,0.0,92689821,0.7526579049939099,4.572989112736717,9.03189485992692,6.133606124253287,매우낮음,최저위험,0.0,0.0,92689821.0,48.80968668268163,737602159.3226482,0.1405166538172572,14,92689821
방배역,37.4815,126.9976,0.2,0,0.0,7,0.38333068394537495,0.0,0,2463,33540.407226958996,0.0,0.0,1.0,0,0,0.0,82610023,0.6708081445391799,3.4499761555083746,8.04969773447016,5.059878708144999,매우낮음,최저위험,0.0,0.0,82610023.0,40.265235392335505,657389675.4692582,0.08723049925341814,7,82610023
방이역,37.5088,127.1261,0.2,0,0.0,5,0.6754999870613393,0.0,0,2463,13775.96833130329,0.0,0.0,1.0,0,0,0.0,33930210,0.2755193666260658,6.079499883552054,3.3062323995127896,5.108856264138311,매우낮음,최저위험,0.0,0.0,33930210.0,40.65498639918029,270008032.08230287,0.1589430715696645,5,33930210
방학역,37.6674,127.0443,0.2,0,0.0,3,1.5377287949496752,0.0,0,2463,18473.883475436458,0.0,0.0,1.0,0,0,0.0,45501175,0.3694776695087292,13.839559154547075,4.433732034104751,10.547519662392261,낮음,하위험,0.0,0.0,45501175.0,83.93449458143436,362086845.8869685,0.12073317688192517,3,45501175
방화역,37.5776,126.8128,0.2,0,0.0,0,0.0,0.0,0,2463,12814.718635809988,0.0,0.0,1.0,0,0,0.0,31562652,0.25629437271619976,0.0,3.0755324725943973,1.076436365408039,매우낮음,최저위험,0.0,0.0,31562652.0,8.566008423928155,251167604.14446482,0.16557249167660534,0,31562652
버티고개역,37.5478,127.0067,0.2,0,0.0,1,0.2,0.0,0,2463,4153.2866423061305,0.0,0.0,1.0,0,0,0.0,10229545,0.0830657328461226,1.7999999999999998,0.9967887941534712,1.518876077953715,매우낮음,최저위험,0.0,0.0,10229545.0,12.086831787518234,81404132.61654912,0.03425463472290818,1,10229545
보라매공원역,37.4954,126.9181,0.2,0,0.0,0,0.0,0.0,0,1100,4160.475454545454,0.0,0.0,1.0,0,0,0.0,4576523,0.08320950909090909,0.0,0.9985141090909091,0.34947993818181816,매우낮음,최저위험,0.0,0.0,4576523.0,2.7810729836543184,36418812.881187506,0.09296891953766084,0,4576523
보라매병원역,37.493,126.9235,0.2,0,0.0,0,0.0,0.0,0,1100,13130.386363636364,0.0,0.0,1.0,0,0,0.0,14443425,0.2626077272727273,0.0,3.1512927272727276,1.1029524545454545,매우낮음,최저위험,0.0,0.0,14443425.0,8.777016756812404,114937124.19635291,0.09150136611001117,0,14443425
보라매역,37.4999,126.9206,0.2,0,0.0,21,0.6371477147383755,0.0,0,2463,18763.42915144133,0.0,0.0,1.0,0,0,0.0,46214326,0.3752685830288266,5.734329432645379,4.503222996345919,5.303442179940569,매우낮음,최저위험,0.0,0.0,46214326.0,42.20345191697992,367761921.22801495,0.08792223837005225,21,46214326
보문역,37.5855,127.02,0.2,0,0.0,6,1.0,0.0,0,2463,16782.0125862769,0.0,0.0,1.0,0,0,0.0,41334097,0.33564025172553796,9.0,4.027683020706456,7.25968905724726,매우낮음,최저위험,0.0,0.0,41334097.0,57.77076993855215,328926292.7894941,0.046097722286468135,6,41334097
복정역,37.4707,127.1267,0.2,0,0.0,6,0.6052506284350943,0.0,0,2463,17810.852618757614,0.0,0.0,1.0,0,0,0.0,43868130,0.3562170523751523,5.447255655915848,4.2746046285018275,5.0368277963209405,매우낮음,최저위험,0.0,0.0,43868130.0,40.08180206435679,349091486.6848933,0.17688790235626903,6,43868130
봉은사역,37.5143,127.0602,0.2,2,1.0,17,0.7766421167124135,0.0,0,2463,34286.05724725944,0.0,0.0,1.0,0,0,0.0,84446559,0.6857211449451889,18.98977905041172,8.228653739342267,15.223385191537412,낮음,하위험,0.0,0.0,84446559.0,121.14385019125694,672004364.5975691,0.09737391847923116,19,84446559
봉천역,37.4825,126.9417,0.2,1,1.0,17,0.6476612100822542,0.0,0,2463,43642.12383272432,0.0,0.0,1.0,0,0,0.0,107490551,0.8728424766544863,17.828950890740288,10.474109719853836,15.25475648093003,낮음,하위험,0.0,0.0,107490551.0,121.39349498015702,855382626.3660736,0.09150786851412906,18,107490551
봉화산역,37.6174,127.0914,0.2,0,0.0,0,0.0,0.0,0,2463,16367.238733252132,0.0,0.0,1.0,0,0,0.0,40312509,0.32734477466504264,0.0,3.9281372959805116,1.374848053593179,매우낮음,최저위험,0.0,0.0,40312509.0,10.940693186481274,320796753.7893259,0.12429951729592624,0,40312509
북한산보국문역,37.6121,127.0083,0.2,0,0.0,2,1.0,0.0,0,2463,11174.177831912302,0.0,0.0,1.0,0,0,0.0,27522000,0.22348355663824604,9.0,2.681802679658953,6.788630937880634,매우낮음,최저위험,0.0,0.0,27522000.0,54.02220852951361,219013117.18875715,0.05474897259310626,2,27522000
북한산우이역,37.6629,127.0128,0.2,0,0.0,3,0.8048674697470654,0.0,0,2463,5837.5862768980915,0.0,0.0,1.0,0,0,0.0,14377975,0.11675172553796183,7.243807227723588,1.401020706455542,5.198831945279772,매우낮음,최저위험,0.0,0.0,14377975.0,41.37099011976648,114416289.64508468,0.10248902380255562,3,14377975
불광역,37.61,126.9303,0.2,4,1.0,16,0.6470163556609166,0.0,0,2463,42994.1299228583,0.0,0.0,1.0,0,0,0.0,105894542,0.859882598457166,17.82314720094825,10.318591181485992,15.196552594136461,낮음,하위험,0.0,0.0,105894542.0,120.93032316563914,842681990.287616,0.06455648689325781,20,105894542
불암산역,37.6702,127.0791,0.2,0,0.0,9,0.20000000000000004,0.0,0,2463,20342.386520503453,0.0,0.0,1.0,0,0,0.0,50103298,0.40684773041006905,1.8000000000000003,4.882172764920829,2.87876046772229,매우낮음,최저위험,0.0,0.0,50103298.0,22.90844792077695,398709377.09531367,0.14482713834085517,9,50103298
사가정역,37.5809,127.0885,0.2,0,0.0,5,0.8872019193877072,0.0,0,2463,30228.268777913116,0.0,0.0,1.0,0,0,0.0,74452226,0.6045653755582623,7.984817274489364,7.254784506699147,7.729305805762787,매우낮음,최저위험,0.0,0.0,74452226.0,61.50786128280163,592471989.6047465,0.11143433043726003,5,74452226
사당역,37.4766,126.9816,0.2,0,0.0,26,0.6836796148580657,0.0,0,2463,127547.1802679659,0.0,0.0,1.0,0,0,0.0,314148705,2.550943605359318,6.153116533722591,30.611323264311817,14.713488889428822,낮음,하위험,0.0,0.0,314148705.0,117.08622434401391,2499915963.3333807,0.0899720512159196,26,314148705
사평역,37.5042,127.0153,0.2,0,0.0,8,0.7940495578074006,0.0,0,2463,6356.065367438084,0.0,0.0,1.0,0,0,0.0,15654989,0.12712130734876168,7.146446020266605,1.5254556881851402,5.179099404038093,매우낮음,최저위험,0.0,0.0,15654989.0,41.213963545847584,124578444.16996236,0.07261253335341082,8,15654989
삼각지역,37.5344,126.9729,0.2,0,0.0,20,0.8229651384838798,0.0,0,2463,23512.630937880633,0.0,0.0,1.0,0,0,0.0,57911610,0.47025261875761265,7.4066862463549175,5.643031425091352,6.789407058912669,매우낮음,최저위험,0.0,0.0,57911610.0,54.028384704447916,460845949.6955018,0.032502615279389045,20,57911610
삼성역,37.5088,127.063,0.2,0,0.0,14,0.8357848936920997,0.0,0,2463,101910.76898091758,0.0,0.0,1.0,0,0,0.0,251006224,2.0382153796183515,7.522064043228898,24.45858455542022,13.44984622249586,낮음,하위험,0.0,0.0,251006224.0,107.0304755068036,1997444064.8215766,0.1027340741915797,14,251006224
삼성중앙역,37.513,127.053,0.2,0,0.0,5,0.6558779095559203,0.0,0,2463,12210.031262687779,0.0,0.0,1.0,0,0,0.0,30073307,0.24420062525375558,5.902901186003283,2.930407503045067,4.862528396967908,매우낮음,최저위험,0.0,0.0,30073307.0,38.69477151510762,239315773.20850486,0.09212627204006678,5,30073307
삼양사거리역,37.6213,127.0205,0.2,0,0.0,0,0.0,0.0,0,2463,4701.505075111652,0.0,0.0,1.0,0,0,0.0,11579807,0.09403010150223305,0.0,1.1283612180267968,0.3949264263093788,매우낮음,최저위험,0.0,0.0,11579807.0,3.1427246452377386,92149176.20500655,0.06934904469421593,0,11579807
삼양역,37.6269,127.0182,0.2,0,0.0,6,1.0,0.0,0,2463,3978.7945594803086,0.0,0.0,1.0,0,0,0.0,9799771,0.07957589118960617,9.0,0.9549106942752742,6.184218742996347,매우낮음,최저위험,0.0,0.0,9799771.0,49.2124491054708,77984099.79093032,0.0725548068703932,6,9799771
삼전역,37.5045,127.0874,0.2,0,0.0,3,0.6524614472838549,0.0,0,2129,12442.68717707844,0.0,0.0,1.0,0,0,0.0,26490481,0.2488537435415688,5.872153025554693,2.986244922498826,4.86208518948514,매우낮음,최저위험,0.0,0.0,26490481.0,38.691244582022726,210804549.80159673,0.12574720672842574,3,26490481
상계역,37.6607,127.0734,0.2,1,1.0,11,0.42077993474427033,0.0,0,2463,35701.09744214373,0.0,0.0,1.0,0,0,0.0,87931803,0.7140219488428745,15.787019412698434,8.568263386114495,13.260454803394056,낮음,하위험,0.0,0.0,87931803.0,105.52334648034156,699739055.1216376,0.134070130901713,12,87931803
상도역,37.5029,126.9479,0.2,0,0.0,25,0.6404469695223307,0.0,0,2463,21241.457166057655,0.0,0.0,1.0,0,0,0.0,52317709,0.4248291433211531,5.764022725700976,5.097949719853839,5.530897173654478,매우낮음,최저위험,0.0,0.0,52317709.0,44.013481246005156,416331099.929667,0.0703631295494987,25,52317709
상봉역,37.5969,127.0857,0.2,0,0.0,4,0.2,0.0,0,2463,43048.68331303289,0.0,0.0,1.0,0,0,0.0,106028907,0.8609736662606577,1.7999999999999998,10.331683995127893,4.786089398294763,매우낮음,최저위험,0.0,0.0,106028907.0,38.086489290916326,843751232.9840431,0.11190822132444876,4,106028907
상수역,37.5478,126.9224,0.2,0,0.0,1,0.4,0.0,0,2463,20242.309784815265,0.0,0.0,1.0,0,0,0.0,49856809,0.4048461956963053,3.5999999999999996,4.858154348355664,4.0403540219244825,매우낮음,최저위험,0.0,0.0,49856809.0,32.15211572152507,396747879.95692474,0.0586604636872199,1,49856809
상왕십리역,37.5644,127.0293,0.2,0,0.0,7,0.8558899044211307,0.0,0,2463,26105.985789687373,0.0,0.0,1.0,0,0,0.0,64299043,0.5221197157937475,7.703009139790176,6.26543658952497,7.199858747197354,매우낮음,최저위험,0.0,0.0,64299043.0,57.29465545899398,511675526.4764165,0.05134296446448349,7,64299043
상월곡역,37.6066,127.0488,0.2,0,0.0,2,1.0,0.0,0,2463,11558.639058059278,0.0,0.0,1.0,0,0,0.0,28468928,0.23117278116118556,9.0,2.7740733739342267,6.820925680876979,매우낮음,최저위험,0.0,0.0,28468928.0,54.27920192870115,226548530.78636327,0.08136737675506676,2,28468928
상일동역,37.5567,127.1659,0.2,0,0.0,2,1.0,0.0,0,2463,25143.866017052376,0.0,0.0,1.0,0,0,0.0,61929342,0.5028773203410475,9.0,6.03452784409257,7.962084745432399,매우낮음,최저위험,0.0,0.0,61929342.0,63.36025722760707,492818045.08642614,0.1881553879111614,2,61929342
새절역,37.5909,126.9136,0.2,0,0.0,2,1.0,0.0,0,2463,23756.479090539993,0.0,0.0,1.0,0,0,0.0,58512208,0.47512958181079984,9.0,5.701554981729598,7.845544243605359,매우낮음,최저위험,0.0,0.0,58512208.0,62.4328573807979,465625356.7210571,0.06886740883755517,2,58512208
샛강역,37.5174,126.9284,0.2,0,0.0,14,0.7292181437447034,0.0,0,2463,13040.18311002842,0.0,0.0,1.0,0,0,0.0,32117971,0.2608036622005684,6.56296329370233,3.129643946406821,5.361301522148901,매우낮음,최저위험,0.0,0.0,32117971.0,42.663881932805005,255586692.33660722,0.06979233482266795,14,32117971
서강대역,37.5521,126.9355,0.2,0,0.0,2,0.6286472767106608,0.0,0,2463,4182.573690621193,0.0,0.0,1.0,0,0,0.0,10301679,0.08365147381242387,5.657825490395947,1.0038176857490864,4.0289227587695455,매우낮음,최저위험,0.0,0.0,10301679.0,32.061148619680445,81978156.74979866,0.04487326598319964,2,10301679
서대문역,37.5658,126.9666,0.2,0,0.0,3,1.0,0.0,0,2463,33877.75314656922,0.0,0.0,1.0,0,0,0.0,83440906,0.6775550629313845,9.0,8.130660755176613,8.695731264311815,매우낮음,최저위험,0.0,0.0,83440906.0,69.1984307256981,664001632.2983093,0.011421471008581732,3,83440906
서빙고역,37.5196,126.9884,0.2,0,0.0,21,0.6782630111262848,0.0,0,2463,3996.068209500609,0.0,0.0,1.0,0,0,0.0,9842316,0.07992136419001218,6.104367100136564,0.9590563702801461,4.303508344686817,매우낮음,최저위험,0.0,0.0,9842316.0,34.24623128470635,78322662.14362255,0.04803925478189858,21,9842316
서울대벤처타운역,37.472,126.934,0.2,2,2.0,9,0.661064940090697,0.0,0,1100,16642.81,0.0,0.0,1.0,0,0,0.0,18307091,0.33285620000000005,29.949584460816276,3.994274400000001,20.865225939530582,낮음,하위험,0.0,0.0,18307091.0,166.0401923502764,145683201.31415746,0.10424130659196029,11,18307091
서울대입구역,37.4813,126.9527,0.2,0,0.0,51,0.6510352351496685,0.0,0,2463,90663.47137637027,0.0,0.0,1.0,0,0,0.0,223304130,1.8132694275274055,5.859317116347016,21.759233130328866,11.424287721240663,낮음,하위험,0.0,0.0,223304130.0,90.91159310697482,1776997805.1167598,0.0888770499060367,51,223304130
서울숲역,37.5436,127.0447,0.2,0,0.0,10,0.6390380474636403,0.0,0,2463,20504.83028826634,0.0,0.0,1.0,0,0,0.0,50503397,0.4100966057653268,5.751342427172763,4.9211592691839225,5.460778321876669,매우낮음,최저위험,0.0,0.0,50503397.0,43.45549315278684,401893263.77411985,0.07052162788819848,10,50503397
서울역,37.5541,126.9707,0.2,0,0.0,8,0.7063375707260353,0.0,0,2463,167414.49533089728,0.0,0.0,1.0,0,0,0.0,412341902,3.3482899066179455,6.357038136534317,40.17947887941535,18.194892396542677,낮음,하위험,0.0,0.0,412341902.0,144.79035319674543,3281312597.360694,0.01438923208513919,8,412341902
서울지방병무청역,37.5061,126.9227,0.2,0,0.0,7,0.5435211066807937,0.0,0,1100,5703.86,0.0,0.0,1.0,0,0,0.0,6274246,0.11407719999999999,4.8916899601271435,1.3689263999999999,3.6587227140826433,매우낮음,최저위험,0.0,0.0,6274246.0,29.115190267442397,49928863.25372759,0.08189169677078388,7,6274246
서초역,37.4918,127.0077,0.2,0,0.0,24,0.4331088787310212,0.0,0,2463,40182.402760860736,0.0,0.0,1.0,0,0,0.0,98969258,0.8036480552172147,3.897979908579191,9.643776662606578,5.909008772488776,매우낮음,최저위험,0.0,0.0,98969258.0,47.02239774574807,787572331.2418553,0.08038768562410738,24,98969258
석계역,37.615,127.0657,0.2,0,0.0,8,0.4494318574581531,0.0,0,2463,41067.592773041004,0.0,0.0,1.0,0,0,0.0,101149481,0.8213518554608201,4.044886717123378,9.85622226552984,6.07885415906564,매우낮음,최저위험,0.0,0.0,101149481.0,48.37398438750116,804921994.6164874,0.10021746354803922,8,101149481
석촌고분역,37.5025,127.0965,0.2,0,0.0,15,0.8620288985017922,0.0,0,2129,11317.939877876937,0.0,0.0,1.0,0,0,0.0,24095894,0.22635879755753874,7.758260086516129,2.716305570690465,5.993576005977147,매우낮음,최저위험,0.0,0.0,24095894.0,47.695362407412105,191749031.9159171,0.13467832045285819,15,24095894
석촌역,37.5054,127.107,0.2,0,0.0,10,1.0,0.0,0,2463,29123.210312626878,0.0,0.0,1.0,0,0,0.0,71730467,0.5824642062525376,9.0,6.989570475030451,8.296349666260658,매우낮음,최저위험,0.0,0.0,71730467.0,66.020252950209,570812919.6670038,0.1427382569600764,10,71730467
선릉역,37.5045,127.049,0.2,0,0.0,6,0.7908305537042193,0.0,0,2463,120531.38652050345,0.0,0.0,1.0,0,0,0.0,296868805,2.410627730410069,7.117474983337973,28.92753276492083,14.750995206891973,낮음,하위험,0.0,0.0,296868805.0,117.38469013508563,2362406888.2766986,0.09426027795419145,6,296868805
선유도역,37.5382,126.8933,0.2,0,0.0,37,0.8485670098099638,0.0,0,2463,14118.870077141697,0.0,0.0,1.0,0,0,0.0,34774777,0.2823774015428339,7.637103088289675,3.3885288185140072,6.150102093868192,매우낮음,최저위험,0.0,0.0,34774777.0,48.94095743794692,276728882.7234175,0.08930274351888269,37,34774777
선정릉역,37.5109,127.0436,0.2,0,0.0,0,0.0,0.0,0,2463,31070.60454730004,0.0,0.0,1.0,0,0,0.0,76526899,0.6214120909460008,0.0,7.45694509135201,2.6099307819732034,매우낮음,최저위험,0.0,0.0,76526899.0,20.769169253936553,608981712.7672111,0.08599255781752432,0,76526899
성수역,37.5446,127.0561,0.2,0,0.0,0,0.0,0.0,0,2463,68851.49654892407,0.0,0.0,1.0,0,0,0.0,169581236,1.3770299309784815,0.0,16.52435917174178,5.783525710109621,매우낮음,최저위험,0.0,0.0,169581236.0,46.02383526315051,1349484598.2516634,0.08111239116189811,0,169581236
성신여대입구역,37.593,127.0171,0.2,1,3.0,12,0.24431411392934685,0.0,0,2463,48282.79983759643,0.0,0.0,1.0,1,0,0.0,118920536,0.9656559967519286,38.198827025364125,11.587871961023144,28.884992752844784,보통,중위험,0.0,0.0,118920536.0,229.85946888944102,946339556.9768845,0.047234097853147146,13,118920536
솔밭공원역,37.656,127.0133,0.2,0,0.0,0,0.0,0.0,0,2463,4583.1368250101505,0.0,0.0,1.0,0,0,0.0,11288266,0.09166273650020301,0.0,1.0999528380024364,0.3849834933008527,매우낮음,최저위험,0.0,0.0,11288266.0,3.0636012983808136,89829166.64180885,0.096209874753066,0,11288266
솔샘역,37.6203,127.0136,0.2,0,0.0,1,1.0,0.0,0,2463,10242.133576938693,0.0,0.0,1.0,0,0,0.0,25226375,0.20484267153877386,9.0,2.4581120584652862,6.710339220462851,매우낮음,최저위험,0.0,0.0,25226375.0,53.39918283800392,200745113.87699056,0.06451201438492239,1,25226375
송파나루역,37.511,127.1127,0.2,0,0.0,12,0.8564080428063173,0.0,0,2129,9568.816345702207,0.0,0.0,1.0,0,0,0.0,20372010,0.19137632691404416,7.707672385256856,2.2965159229685304,5.813767623455942,매우낮음,최저위험,0.0,0.0,20372010.0,46.264492763031704,162115304.6108761,0.1456857577115964,12,20372010
송파역,37.4997,127.1122,0.2,0,0.0,9,0.9008072310024998,0.0,0,2463,15367.403572878604,0.0,0.0,1.0,0,0,0.0,37849915,0.3073480714575721,8.107265079022499,3.6881768574908653,6.560584201486428,매우낮음,최저위험,0.0,0.0,37849915.0,52.207470261858,301200053.39290375,0.14990623736189884,9,37849915
수락산역,37.6779,127.0554,0.2,0,0.0,0,0.0,0.0,0,2463,24389.742590336988,0.0,0.0,1.0,0,0,0.0,60071936,0.48779485180673976,0.0,5.853538221680878,2.048738377588307,매우낮음,최저위험,0.0,0.0,60071936.0,16.303341994762448,478037277.7749989,0.13564925359176327,0,60071936
수색역,37.5808,126.8957,0.2,0,0.0,7,0.7513426390268111,0.0,0,2463,5026.841250507511,0.0,0.0,1.0,0,0,0.0,12381110,0.10053682501015022,6.762083751241299,1.2064419001218027,4.817609103349476,매우낮음,최저위험,0.0,0.0,12381110.0,38.337315134129135,98525742.87322481,0.08353310720904866,7,12381110
수서역,37.4855,127.1044,0.2,0,0.0,0,0.0,0.0,0,2463,61992.19123020706,0.0,0.0,1.0,0,0,0.0,152686767,1.2398438246041412,0.0,14.878125895249696,5.207344063337393,매우낮음,최저위험,0.0,0.0,152686767.0,41.43872740301909,1215042685.638524,0.1501264800093585,0,152686767
수유역,37.6379,127.0255,0.2,1,1.0,4,0.6826709419870938,0.0,0,2463,66642.7592367032,4.044551405467847,0.04158644589911436,1.0,0,0,0.0,164141116,1.3328551847340642,18.518316490975877,15.994262216808771,17.634897495017388,낮음,하위험,0.04158644589911436,0.0,164141116.0,140.334055362545,1306193498.8010094,0.08575669070107904,5,164141116
숙대입구역,37.5446,126.9721,0.2,0,0.0,63,0.8352994750577046,0.0,0,2463,27528.716199756396,0.0,0.0,1.0,0,0,0.0,67803228,0.550574323995128,7.517695275519341,6.606891887941536,7.198914089867109,매우낮음,최저위험,0.0,0.0,67803228.0,57.28713811481216,539560944.6893402,0.022680828909009274,63,67803228
숭실대입구역,37.4963,126.9536,0.2,0,0.0,10,0.6893933725292256,0.0,0,2463,26212.574096630127,0.0,0.0,1.0,0,0,0.0,64561570,0.5242514819326025,6.204540352763031,6.29101778319123,6.234807453412901,매우낮음,최저위험,0.0,0.0,64561570.0,49.61502127184276,513764649.96367085,0.07431958019257087,10,64561570
시청역,37.5653,126.9772,0.2,0,0.0,0,0.0,0.0,0,2463,89356.98903775883,0.0,0.0,1.0,0,0,0.0,220086264,1.7871397807551765,0.0,21.44567736906212,7.505987079171742,매우낮음,최저위험,0.0,0.0,220086264.0,59.730747321704015,1751390841.1113925,0.0014422205101822345,0,220086264
신금호역,37.5545,127.0205,0.2,0,0.0,2,0.2,0.0,0,2463,12073.350385708485,0.0,0.0,1.0,0,0,0.0,29736662,0.2414670077141697,1.7999999999999998,2.897604092570037,2.1841614323995127,매우낮음,최저위험,0.0,0.0,29736662.0,17.38100442385285,236636837.41764632,0.044161634933507034,2,29736662
신길역,37.5168,126.9184,0.2,0,0.0,32,0.6437978643599512,0.0,0,2463,23860.274868047098,0.0,0.0,1.0,0,0,0.0,58767857,0.477205497360942,5.794180779239561,5.726465968331304,5.770480595421671,매우낮음,최저위험,0.0,0.0,58767857.0,45.92002553886112,467659746.82338214,0.07760315715225845,32,58767857
신내역,37.6125,127.1043,0.2,0,0.0,0,0.0,0.0,0,2463,3216.466910272026,0.0,0.0,1.0,0,0,0.0,7922158,0.06432933820544051,0.0,0.7719520584652861,0.27018322046285015,매우낮음,최저위험,0.0,0.0,7922158.0,2.150049753857496,63042530.28275017,0.13441610766571124,0,7922158
신논현역,37.5048,127.0255,0.2,2,1.0,19,0.5105424194873875,0.0,0,2463,58709.19082419813,0.0,0.0,1.0,0,0,0.0,144600737,1.1741838164839626,16.59488177538649,14.090205797807553,15.718245183233863,낮음,하위험,0.0,0.0,144600737.0,125.08182088210216,1150696103.414056,0.07786616723583677,21,144600737
신답역,37.5698,127.0471,0.2,0,0.0,4,1.0,0.0,0,2463,3131.7141697117336,0.0,0.0,1.0,0,0,0.0,7713412,0.06263428339423467,9.0,0.7516114007308161,6.113063990255785,매우낮음,최저위험,0.0,0.0,7713412.0,48.6462175743137,61381382.39521713,0.0691787539639219,4,7713412
신당역,37.5657,127.0195,0.2,0,0.0,0,0.0,0.0,0,2463,44264.662606577345,0.0,0.0,1.0,0,0,0.0,109023864,0.8852932521315469,0.0,10.623519025578563,3.718231658952497,매우낮음,최저위험,0.0,0.0,109023864.0,29.58874740415341,867584343.5289267,0.04150771012715506,0,109023864
신대방삼거리역,37.4998,126.9282,0.2,0,0.0,17,0.5784233286146978,0.0,0,2463,28935.956963053188,0.0,0.0,1.0,0,0,0.0,71269262,0.5787191392610638,5.2058099575322805,6.944629671132766,5.81439685729245,매우낮음,최저위험,0.0,0.0,71269262.0,46.26950004680374,567142766.8905689,0.0832401946177368,17,71269262
신대방역,37.4877,126.9135,0.2,0,0.0,7,0.4246967664628936,0.0,0,2463,49316.84449857897,0.0,0.0,1.0,0,0,0.0,121467388,0.9863368899715793,3.822270898166042,11.836042679658952,6.627091021688561,매우낮음,최저위험,0.0,0.0,121467388.0,52.73671472108267,966606761.2330585,0.10183167483646516,7,121467388
신도림역,37.5089,126.8913,0.2,0,0.0,9,1.0,0.0,0,2463,106069.6772228989,0.0,0.0,1.0,0,0,0.0,261249615,2.121393544457978,9.0,25.45672253349574,14.759852886723507,낮음,하위험,0.0,0.0,261249615.0,117.45517731156134,2078958380.4052281,0.10408962484320392,9,261249615
신림역,37.4843,126.9297,0.2,1,2.0,40,0.6818748232498266,0.0,0,2463,117064.44214372717,0.0,0.0,1.0,0,0,0.0,288329721,2.3412888428745435,30.136873409248444,28.095466114494524,29.422380856084573,보통,중위험,0.0,0.0,288329721.0,234.13586753891053,2294455016.872853,0.09534007551916356,41,288329721
신목동역,37.5443,126.8831,0.2,0,0.0,5,0.3139622438512347,0.0,0,2463,7225.363377994316,0.0,0.0,1.0,0,0,0.0,17796070,0.14450726755988633,2.825660194661112,1.734087210718636,2.443609650281245,매우낮음,최저위험,0.0,0.0,17796070.0,19.44562774146589,141616625.4054693,0.09746204389401582,5,17796070
신반포역,37.5035,126.9961,0.2,0,0.0,17,0.6061523071161927,0.0,0,2463,6805.7133576938695,0.0,0.0,1.0,0,0,0.0,16762472,0.1361142671538774,5.4553707640457345,1.6333712058465288,4.117670918676013,매우낮음,최저위험,0.0,0.0,16762472.0,32.76738403665166,133391513.86197445,0.06554853163877548,17,16762472
신방화역,37.5675,126.8172,0.2,0,0.0,1,0.2,0.0,0,2463,13059.082825822168,0.0,0.0,1.0,0,0,0.0,32164521,0.2611816565164434,1.7999999999999998,3.1341798781973207,2.266962957369062,매우낮음,최저위험,0.0,0.0,32164521.0,18.039918023575392,255957125.46665362,0.1608031094226673,1,32164521
신사역,37.5164,127.0203,0.2,0,0.0,11,0.5863006814279452,0.0,0,2463,57613.831506293136,0.0,0.0,1.0,0,0,0.0,141902867,1.1522766301258627,5.2767061328515075,13.827319561510352,8.269420832882105,매우낮음,최저위험,0.0,0.0,141902867.0,65.80596010301426,1129227136.0980895,0.0655690475758267,11,141902867
신설동역,37.576,127.0245,0.2,0,0.0,31,0.8422002013414152,0.0,0,2463,38091.178643930165,0.0,0.0,1.0,0,0,0.0,93818573,0.7618235728786033,7.579801812072737,9.141882874543239,8.126530183937414,매우낮음,최저위험,0.0,0.0,93818573.0,64.66887244795643,746584482.3388914,0.04746050990034637,31,93818573
신용산역,37.5293,126.968,0.2,0,0.0,12,0.8125657011429339,0.0,0,2463,33238.03329273244,0.0,0.0,1.0,0,0,0.0,81865276,0.6647606658546489,7.3130913102864055,7.977127990255786,7.545504148275688,매우낮음,최저위험,0.0,0.0,81865276.0,60.04521416592386,651463167.1491152,0.03852064381600743,12,81865276
신이문역,37.6018,127.0674,0.2,0,0.0,6,0.6083137741182798,0.0,0,2463,15702.163215590743,0.0,0.0,1.0,0,0,0.0,38674428,0.31404326431181484,5.474823967064518,3.768519171741778,4.877617288701559,매우낮음,최저위험,0.0,0.0,38674428.0,38.81484510036707,307761319.3725802,0.0961168559619076,6,38674428
신정네거리역,37.5202,126.8529,0.2,0,0.0,16,0.7763762325631395,0.0,0,2463,19041.539179861957,0.0,0.0,1.0,0,0,0.0,46899311,0.38083078359723915,6.987386093068254,4.56996940316687,6.141290251602769,매우낮음,최저위험,0.0,0.0,46899311.0,48.870835025232516,373212858.662705,0.13339302830356925,16,46899311
신정역,37.525,126.8561,0.2,0,0.0,25,0.5541435154667457,0.0,0,2463,22985.1904181892,0.0,0.0,1.0,0,0,0.0,56612524,0.459703808363784,4.987291639200711,5.516445700365408,5.172495560608356,매우낮음,최저위험,0.0,0.0,56612524.0,41.161411829585205,450508151.77542794,0.1287705711721397,25,56612524
신촌역,37.5552,126.937,0.2,0,0.0,15,0.7671525536892387,0.0,0,2463,78525.96995533902,0.0,0.0,1.0,0,0,0.0,193409464,1.5705193991067805,6.904372983203149,18.846232789281366,11.084023915330524,낮음,하위험,0.0,0.0,193409464.0,88.20385977368183,1539103611.817699,0.04252869619444859,15,193409464
신풍역,37.5001,126.9098,0.2,0,0.0,14,0.6373285114132413,0.0,0,2463,20940.008526187576,0.0,0.0,1.0,0,0,0.0,51575241,0.4188001705237515,5.735956602719171,5.025602046285018,5.487332507967218,매우낮음,최저위험,0.0,0.0,51575241.0,43.66680465159149,410422727.3152893,0.0951850828649003,14,51575241
쌍문역,37.6485,127.0347,0.2,1,1.0,4,1.0,0.0,0,2463,54434.81688997158,0.0,0.0,1.0,0,0,0.0,134072954,1.0886963377994316,21.0,13.064356053593182,18.22252461875761,낮음,하위험,0.0,0.0,134072954.0,145.01024343445147,1066918668.201615,0.09969398176420104,5,134072954
아차산역,37.5522,127.0896,0.2,0,0.0,5,0.8319107326665104,0.0,0,2463,27951.876979293545,0.0,0.0,1.0,0,0,0.0,68845473,0.5590375395858709,7.487196593998593,6.708450475030451,7.214635452359744,매우낮음,최저위험,0.0,0.0,68845473.0,57.41224474245428,547854866.8724809,0.11251244375624492,5,68845473
아현역,37.5574,126.9561,0.2,0,0.0,3,0.37695879145079014,0.0,0,2463,19445.031668696713,0.0,0.0,1.0,0,0,0.0,47893113,0.38890063337393427,3.392629123057111,4.666807600487211,3.838591590157646,매우낮음,최저위험,0.0,0.0,47893113.0,30.546541304228406,381121283.70043564,0.023715395843194636,3,47893113
안국역,37.5765,126.9854,0.2,0,0.0,10,0.8430030987084673,0.0,0,2463,46962.68777913114,0.0,0.0,1.0,0,0,0.0,115669100,0.9392537555826228,7.5870278883762055,11.271045066991475,8.87643390089155,매우낮음,최저위험,0.0,0.0,115669100.0,70.63641661776826,920465451.3995374,0.012440257232073723,10,115669100
안암역,37.5863,127.0292,0.2,2,1.0,3,0.5873868850911137,0.0,0,2463,23376.7503045067,0.0,0.0,1.0,0,0,0.0,57576936,0.467535006090134,17.286481965820023,5.610420073081608,13.199860303361577,낮음,하위험,0.0,0.0,57576936.0,105.041150770124,458182698.624285,0.05489517282968531,5,57576936
암사역,37.5502,127.1275,0.2,0,0.0,3,1.0,0.0,0,2463,32395.416159155502,0.0,0.0,1.0,0,0,0.0,79789910,0.6479083231831101,9.0,7.774899878197321,8.571214957369063,매우낮음,최저위험,0.0,0.0,79789910.0,68.20756143842377,634947929.2678725,0.15038597009030139,3,79789910
암사역사공원역,37.5572,127.1376,0.2,0,0.0,2,1.0,0.0,0,295,10713.13220338983,0.0,0.0,1.0,0,0,0.0,3160374,0.2142626440677966,9.0,2.5711517288135597,6.749903105084746,매우낮음,최저위험,0.0,0.0,3160374.0,53.714022228278516,25149457.20595528,0.159870729028186,2,3160374
압구정로데오역,37.5275,127.0406,0.2,0,0.0,5,0.49956518112036613,0.0,0,2463,36017.7969955339,0.0,0.0,1.0,0,0,0.0,88711834,0.720355939910678,4.496086630083295,8.644271278928137,5.94795125717899,매우낮음,최저위험,0.0,0.0,88711834.0,47.33229219248447,705946344.5923833,0.0737547286619643,5,88711834
압구정역,37.5265,127.0285,0.2,0,0.0,16,0.544445041213083,0.0,0,2463,62018.19204222493,0.0,0.0,1.0,0,0,0.0,152750807,1.2403638408444986,4.900005370917747,14.884366090133984,8.394531622643429,매우낮음,최저위험,0.0,0.0,152750807.0,66.80156013424653,1215552299.7663043,0.06442243398071736,16,152750807
애오개역,37.5534,126.9567,0.2,0,0.0,5,0.4385261329728161,0.0,0,2463,12603.468128298822,0.0,0.0,1.0,0,0,0.0,31042342,0.25206936256597645,3.946735196755345,3.0248323507917174,3.6240692006680755,매우낮음,최저위험,0.0,0.0,31042342.0,28.839426369670907,247027108.72245762,0.02500599928016684,5,31042342
약수역,37.5545,127.0109,0.2,0,0.0,0,0.0,0.0,0,2463,31483.7389362566,0.0,0.0,1.0,0,0,0.0,77544449,0.629674778725132,0.0,7.556097344701585,2.6446340706455542,매우낮음,최저위험,0.0,0.0,77544449.0,21.045329250624032,617079118.384369,0.03502013706427789,0,77544449
양재역,37.4846,127.0342,0.2,1,1.0,45,0.5416194419056303,0.0,0,2463,72373.58302882663,3.75263765883712,0.040315748941085874,1.0,0,0,0.0,178256135,1.4474716605765325,17.237416717620444,17.36965992691839,17.283701840874727,낮음,하위험,0.040315748941085874,0.0,178256135.0,137.5393291450852,1418517251.0853105,0.09932799202641736,46,178256135
양천구청역,37.5124,126.8657,0.2,0,0.0,0,0.0,0.0,0,2463,13077.2383272432,0.0,0.0,1.0,0,0,0.0,32209238,0.26154476654486397,0.0,3.138537198538368,1.0984880194884286,매우낮음,최저위험,0.0,0.0,32209238.0,8.741489911440482,256312972.04616562,0.1246519153482917,0,32209238
양천향교역,37.5681,126.842,0.2,0,0.0,2,0.6091242663691057,0.0,0,2463,17289.25903369874,0.0,0.0,1.0,0,0,0.0,42583445,0.34578518067397485,5.48211839732195,4.149422168087698,5.015674717089962,매우낮음,최저위험,0.0,0.0,42583445.0,39.913471208295555,338868288.2815927,0.13600941143905754,2,42583445
양평역,37.5256,126.8864,0.2,0,0.0,21,0.5465768623694828,0.0,0,2463,19278.627283800244,0.0,0.0,1.0,0,0,0.0,47483259,0.3855725456760049,4.919191761325345,4.626870548112059,4.816879336700695,매우낮음,최저위험,0.0,0.0,47483259.0,38.33150783565628,377859769.1981363,0.10031634961460664,21,47483259
어린이대공원역,37.548,127.0747,0.2,0,0.0,7,0.588741762052704,0.0,0,2463,28509.1904181892,0.0,0.0,1.0,0,0,0.0,70218136,0.570183808363784,5.298675858474336,6.842205700365408,5.838911303136211,매우낮음,최저위험,0.0,0.0,70218136.0,46.4645798084634,558778171.9549483,0.09845374548488392,7,70218136
언주역,37.5073,127.034,0.2,0,0.0,18,0.920557515444323,0.0,0,2463,18480.713763702803,0.0,0.0,1.0,0,1,0.0,45517998,0.36961427527405605,8.285017638998907,4.435371303288672,6.937641421500325,매우낮음,최저위험,0.0,0.0,45517998.0,55.207996281543,362220719.06735027,0.08149012210078561,18,45517998
여의나루역,37.5271,126.933,0.2,0,0.0,2,1.0,0.0,0,2463,25196.983759642713,0.0,0.0,1.0,0,0,0.0,62060171,0.5039396751928543,9.0,6.047276102314251,7.966546635809989,매우낮음,최저위험,0.0,0.0,62060171.0,63.39576382306345,493859149.18891466,0.059811035770992275,2,62060171
여의도역,37.5218,126.9244,0.2,0,0.0,36,0.8594087470113323,0.0,0,2463,94933.71538773853,0.0,0.0,1.0,0,0,0.0,233821741,1.8986743077547705,7.7346787231019904,22.78409169305725,13.001973262586331,낮음,하위험,0.0,0.0,233821741.0,103.46641573446361,1860694294.1251445,0.0697929079491512,36,233821741
역삼역,37.5007,127.0365,0.2,0,0.0,4,0.7496018665343458,0.0,0,2463,92066.75883069428,0.0,0.0,1.0,0,0,0.0,226760427,1.8413351766138855,6.746416798809112,22.096022119366626,12.118778661004242,낮음,하위험,0.0,0.0,226760427.0,96.43817640677028,1804502142.7339442,0.08804481813258828,4,226760427
역촌역,37.6062,126.9228,0.2,1,2.0,39,0.5792275577967824,0.0,0,2463,7821.812423873325,0.0,0.0,1.0,0,0,0.0,19265124,0.1564362484774665,29.213048020171044,1.8772349817295984,19.64551345671654,낮음,하위험,0.0,0.0,19265124.0,156.33402881073923,153306985.69391534,0.06799360264024981,40,19265124
연신내역,37.6192,126.9211,0.2,0,0.0,33,0.8378405647863918,0.0,0,2463,69469.34754364596,0.0,0.0,1.0,0,0,0.0,171103003,1.389386950872919,7.540565083077526,16.672643410475033,10.736792497666652,낮음,하위험,0.0,0.0,171103003.0,85.44067994778123,1361594435.2658699,0.07755578637342302,33,171103003
염창역,37.547,126.8749,0.2,0,0.0,5,0.5579339926423714,0.0,0,2463,31333.98335363378,0.0,0.0,1.0,0,0,0.0,77175601,0.6266796670726756,5.021405933781343,7.520156004872108,5.895968458663111,매우낮음,최저위험,0.0,0.0,77175601.0,46.91862622550686,614143919.261891,0.10492787999382988,5,77175601
영등포구청역,37.5258,126.8967,0.2,0,0.0,7,0.7447780526210835,0.0,0,2463,47977.44579780755,3.518983442433577,0.03904505198305738,1.0,0,0,0.0,118168449,0.959548915956151,7.054407941437268,11.514586991473813,8.615470608950059,매우낮음,최저위험,0.0,0.0,118168449.0,68.55973672386716,940354638.7926267,0.09091853496399893,7,118168449
영등포시장역,37.5227,126.9052,0.2,0,0.0,16,0.8390717433761187,0.0,0,2463,19805.07551766139,0.0,0.0,1.0,0,0,0.0,48779901,0.39610151035322777,7.551645690385067,4.7532181242387335,6.57219604223385,매우낮음,최저위험,0.0,0.0,48779901.0,52.29987435452541,388178118.3841644,0.08496046139234355,16,48779901
영등포역,37.5157,126.9079,0.2,0,0.0,38,0.7656931551164116,0.0,0,2463,84952.29638652051,0.0,0.0,1.0,0,0,0.0,209237506,1.6990459277304102,6.8912383960477035,20.388551132764924,11.615297853898731,낮음,하위험,0.0,0.0,209237506.0,92.43160344663333,1665059168.0060053,0.08657164662866838,38,209237506
오금역,37.5021,127.128,0.2,0,0.0,7,0.9206635732245143,0.0,0,2463,18188.96670726756,0.0,0.0,1.0,0,0,0.0,44799425,0.3637793341453512,8.285972159020629,4.365352009744215,6.913755106773883,매우낮음,최저위험,0.0,0.0,44799425.0,55.017915028494905,356502496.82123166,0.16324019112951807,7,44799425
오류동역,37.4944,126.8448,0.2,0,0.0,8,0.7711234444578298,0.0,0,2463,21724.422249289484,0.0,0.0,1.0,0,0,0.0,53507252,0.4344884449857897,6.940111000120468,5.213861339829476,6.335923619018621,매우낮음,최저위험,0.0,0.0,53507252.0,50.4196781509752,425797182.3531851,0.15146171133324965,8,53507252
오목교역,37.5245,126.8753,0.2,0,0.0,25,0.5777098319669322,0.0,0,2463,43355.180267965894,0.0,0.0,1.0,0,0,0.0,106783809,0.8671036053593179,5.1993884877023895,10.405243264311814,7.021437659515688,매우낮음,최저위험,0.0,0.0,106783809.0,55.8748255561755,849758552.226541,0.11095625264039546,25,106783809
옥수역,37.5416,127.0174,0.2,0,0.0,1,0.2,0.0,0,2463,17810.04060089322,0.0,0.0,1.0,0,0,0.0,43866130,0.35620081201786435,1.7999999999999998,4.274409744214373,2.6660434104750306,매우낮음,최저위험,0.0,0.0,43866130.0,21.2156993637338,349075571.1905841,0.04660869017683083,1,43866130
온수역,37.492,126.8238,0.2,0,0.0,0,0.0,0.0,0,2463,31130.41209906618,0.0,0.0,1.0,0,0,0.0,76674205,0.6226082419813236,0.0,7.4712989037758835,2.614954616321559,매우낮음,최저위험,0.0,0.0,76674205.0,20.809147657427335,610153936.6695658,0.17125387586853796,0,76674205
올림픽공원역,37.5163,127.131,0.2,0,0.0,5,0.8299540883606139,0.0,0,2463,22026.290702395454,0.0,0.0,1.0,0,0,0.0,54250754,0.4405258140479091,7.469586795245525,5.286309768574909,6.70543983591081,매우낮음,최저위험,0.0,0.0,54250754.0,53.360194774525645,431713783.27812064,0.16102496700822963,5,54250754
왕십리역,37.5613,127.0371,0.2,1,1.0,4,1.0,0.0,0,2463,71033.51157125457,0.0,0.0,1.0,0,0,0.0,174955539,1.4206702314250914,21.0,17.0480427771011,19.61681497198538,낮음,하위험,0.0,0.0,174955539.0,156.10565352552868,1392251942.6578436,0.05932832375855603,5,174955539
외대앞역,37.5963,127.0637,0.2,0,0.0,0,0.0,0.0,0,2463,17850.563946406823,0.0,0.0,1.0,0,0,0.0,43965939,0.35701127892813644,0.0,4.284135347137638,1.499447371498173,매우낮음,최저위험,0.0,0.0,43965939.0,11.932223054004188,349869825.9763371,0.09073329047268468,0,43965939
용답역,37.5621,127.0509,0.2,0,0.0,2,1.0,0.0,0,2463,5362.352821762079,0.0,0.0,1.0,0,0,0.0,13207475,0.10724705643524157,9.0,1.286964677222899,6.300437637028015,매우낮음,최저위험,0.0,0.0,13207475.0,50.13728967876146,105101746.6006315,0.07303266392512725,2,13207475
용두역,37.5741,127.0383,0.2,0,0.0,13,0.5883598156173139,0.0,0,2463,4553.5757206658545,3.7182133230650756,0.03996919522525992,1.0,0,0,0.0,11215457,0.0910715144133171,5.654961097583164,1.0928581729598053,4.058225073964988,매우낮음,최저위험,0.0,0.0,11215457.0,32.29432903505002,89249771.02922995,0.06077705159023042,13,11215457
용마산역,37.5737,127.0867,0.2,0,0.0,5,0.892433946308045,0.0,0,2463,11206.097036134795,0.0,0.0,1.0,0,0,0.0,27600617,0.2241219407226959,8.031905516772404,2.689463288672351,6.1620507369373865,매우낮음,최저위험,0.0,0.0,27600617.0,49.03604171833207,219638731.39680994,0.10893819348603054,5,27600617
용산역,37.5301,126.9648,0.2,0,0.0,0,0.0,0.0,0,2463,77890.28461226147,0.0,0.0,1.0,0,0,0.0,191843771,1.5578056922452295,0.0,18.693668306942754,6.542783907429964,매우낮음,최저위험,0.0,0.0,191843771.0,52.06582002247922,1526644222.80198,0.03871950412905581,0,191843771
우장산역,37.5488,126.8363,0.2,0,0.0,40,0.9643196238999494,0.0,0,2463,27483.641900121802,0.0,0.0,1.0,0,0,0.0,67692210,0.549672838002436,8.678876615099545,6.596074056029233,7.949895719424935,매우낮음,최저위험,0.0,0.0,67692210.0,63.26326004057889,538677491.5157313,0.1428011904712281,40,67692210
월계역,37.6333,127.0589,0.2,0,0.0,5,0.68,0.0,0,2463,12376.69874137231,0.0,0.0,1.0,0,0,0.0,30483809,0.2475339748274462,6.12,2.9704076979293546,5.017642694275274,매우낮음,최저위험,0.0,0.0,30483809.0,39.92913187314228,242582444.33096033,0.10491448898984375,5,30483809
월곡역,37.6018,127.0415,0.2,0,0.0,76,0.6786089117818084,0.0,0,2463,22277.14778725132,0.0,0.0,1.0,0,0,0.0,54868615,0.4455429557450264,6.107480206036275,5.346515468940317,5.84114254805269,매우낮음,최저위험,0.0,0.0,54868615.0,46.482335491348714,436630564.8928057,0.07265218510134824,76,54868615
월드컵경기장역,37.5696,126.8991,0.2,0,0.0,0,0.0,0.0,0,2463,12101.675192854244,0.0,0.0,1.0,0,0,0.0,29806426,0.24203350385708486,0.0,2.9044020462850186,1.0165407161997564,매우낮음,최저위험,0.0,0.0,29806426.0,8.089373991868337,237192001.69013947,0.07896087638823719,0,29806426
을지로3가역,37.5663,126.991,0.2,0,0.0,0,0.0,0.0,0,2463,62212.7401542834,0.0,0.0,1.0,0,0,0.0,153229979,1.244254803085668,0.0,14.931057637028017,5.225870172959805,매우낮음,최저위험,0.0,0.0,153229979.0,41.58615349915255,1219365429.385866,0.013001538370521228,0,153229979
을지로4가역,37.5666,126.9976,0.2,0,0.0,0,0.0,0.0,0,2463,34979.54689403167,0.0,0.0,1.0,0,0,0.0,86154624,0.6995909378806334,0.0,8.395091254567602,2.9382819390986605,매우낮음,최저위험,0.0,0.0,86154624.0,23.38210474025956,685596713.991182,0.01960025510039189,0,86154624
을지로입구역,37.566,126.9822,0.2,0,0.0,1,0.4,0.0,0,2463,85403.53187170118,0.0,0.0,1.0,0,0,0.0,210348899,1.7080706374340238,3.5999999999999996,20.496847649208284,9.513896677222899,매우낮음,최저위험,0.0,0.0,210348899.0,75.70918421227913,1673903352.4893918,0.0042296571965222095,1,210348899
응봉역,37.55,127.0345,0.2,0,0.0,0,0.0,0.0,0,2463,3386.175801867641,0.0,0.0,1.0,0,0,0.0,8340151,0.06772351603735281,0.0,0.8126821924482338,0.2844387673568818,매우낮음,최저위험,0.0,0.0,8340151.0,2.2634917915906687,66368812.889140695,0.058860003397893164,0,8340151
응암역,37.5985,126.9155,0.2,0,0.0,3,1.0,0.0,0,2463,33018.36987413723,0.0,0.0,1.0,0,0,0.0,81324245,0.6603673974827445,9.0,7.924408769792935,8.623543069427527,매우낮음,최저위험,0.0,0.0,81324245.0,68.62397532326231,647157779.2483176,0.07021573897638783,3,81324245
이대역,37.5568,126.9464,0.2,0,0.0,15,0.7823001690649282,0.0,0,2463,32255.649614291513,0.0,0.0,1.0,0,0,0.0,79445665,0.6451129922858303,7.040701521584353,7.7413559074299645,7.285930556630317,매우낮음,최저위험,0.0,0.0,79445665.0,57.97959315559997,632208514.598639,0.03305525676802015,15,79445665
이수역,37.4868,126.9822,0.2,0,0.0,9,0.6309491491168424,0.0,0,4926,34583.33861144945,0.0,0.0,1.0,0,0,0.0,170357526,0.691666772228989,5.678542342051582,8.300001266747868,6.596052965695282,매우낮음,최저위험,0.0,0.0,170357526.0,52.489721719318005,1355662117.790304,0.07981058826997436,9,170357526
이촌역,37.5224,126.9735,0.2,0,0.0,7,0.2835207717128185,0.0,0,2463,24693.688591149006,0.0,0.0,1.0,0,0,0.0,60820555,0.49387377182298015,2.5516869454153666,5.926485261875762,3.7328663561765048,매우낮음,최저위험,0.0,0.0,60820555.0,29.705206624346115,483994598.4921245,0.04432899728168865,7,60820555
이태원역,37.5345,126.9943,0.2,0,0.0,1,0.2,0.0,0,2463,26611.80389768575,0.0,0.0,1.0,0,0,0.0,65544873,0.532236077953715,1.7999999999999998,6.38683293544458,3.405391527405603,매우낮음,최저위험,0.0,0.0,65544873.0,27.099244737493063,521589526.61402535,0.03591225417597467,1,65544873
일원역,37.484,127.0841,0.2,0,0.0,8,1.0,0.0,0,2463,18417.137637028016,0.0,0.0,1.0,0,0,0.0,45361410,0.36834275274056033,9.0,4.420113032886724,7.397039561510354,매우낮음,최저위험,0.0,0.0,45361410.0,58.86377052303394,360974631.3559066,0.1344003720233017,8,45361410
자양역,37.5316,127.0668,0.2,0,0.0,12,0.801186129229454,0.0,0,2463,17879.06780349168,0.0,0.0,1.0,0,0,0.0,44036144,0.35758135606983354,7.210675163065085,4.2909762728380025,6.188780551485607,매우낮음,최저위험,0.0,0.0,44036144.0,49.24875082399602,350428499.6153254,0.09541200134155624,12,44036144
잠실나루역,37.5207,127.1038,0.2,0,0.0,2,1.0,0.0,0,2463,27509.82257409663,0.0,0.0,1.0,0,0,0.0,67756693,0.5501964514819326,9.0,6.6023574177831925,8.160825096224118,매우낮음,최저위험,0.0,0.0,67756693.0,64.94178268862304,539190630.9255011,0.13387785477816372,2,67756693
잠실새내역,37.5116,127.0863,0.2,0,0.0,16,0.9507868598449176,0.0,0,2463,44107.878197320344,0.0,0.0,1.0,0,0,0.0,108637704,0.8821575639464069,8.557081738604259,10.585890767356883,9.267164898667678,매우낮음,최저위험,0.0,0.0,108637704.0,73.74575510353321,864511379.8877084,0.12142034425910499,16,108637704
잠실역,37.5133,127.1002,0.2,0,0.0,10,1.0,0.0,0,2463,181100.22614697524,0.0,0.0,1.0,0,0,0.0,446049857,3.622004522939505,9.0,43.464054275274066,21.062418996345926,낮음,하위험,0.0,0.0,446049857.0,167.60940483705454,3549551980.3491526,0.13327820527003376,10,446049857
잠원역,37.5129,127.0114,0.2,0,0.0,0,0.0,0.0,0,2463,9977.776695087292,0.0,0.0,1.0,0,0,0.0,24575264,0.19955553390174585,0.0,2.3946664068209507,0.8381332423873327,매우낮음,최저위험,0.0,0.0,24575264.0,6.669652424779082,195563737.1694152,0.0631547306224924,0,24575264
장승배기역,37.5049,126.9391,0.2,0,0.0,19,0.665544340301825,0.0,0,2463,18187.967113276492,0.0,0.0,1.0,0,0,0.0,44796963,0.36375934226552986,5.989899062716424,4.365112107186359,5.421223628280901,매우낮음,최저위험,0.0,0.0,44796963.0,43.14072690237426,356482904.847737,0.07285444392759907,19,44796963
장지역,37.4786,127.1262,0.2,1,1.0,11,0.8027905167632506,0.0,0,2463,32088.410881039385,0.0,0.0,1.0,0,0,0.0,79033756,0.6417682176207877,19.225114650869255,7.701218611449453,15.191751037072326,낮음,하위험,0.0,0.0,79033756.0,120.89211358857439,628930646.925937,0.17230684838392352,12,79033756
장한평역,37.5616,127.0637,0.2,0,0.0,6,0.310264030761709,0.0,0,2463,34187.95736906212,0.0,0.0,1.0,0,0,0.0,84204939,0.6837591473812423,2.792376276855381,8.205109768574909,4.6868329989572155,매우낮음,최저위험,0.0,0.0,84204939.0,37.29663196151264,670081613.7300758,0.0858399673811708,6,84204939
정릉역,37.6026,127.0135,0.2,1,1.0,47,0.6798096076406512,0.0,0,2463,8228.666260657734,0.0,0.0,1.0,0,0,0.0,20267205,0.16457332521315468,18.118286468765863,1.974879902557856,12.46809417059306,낮음,하위험,0.0,0.0,20267205.0,99.21794090925653,161281292.9203388,0.05063062314449888,48,20267205
제기동역,37.5782,127.0349,0.2,0,0.0,7,0.7308425301388566,0.0,0,2463,34737.4388956557,0.0,0.0,1.0,0,0,0.0,85558312,0.6947487779131141,6.577582771249709,8.336985334957369,7.193373668547391,매우낮음,최저위험,0.0,0.0,85558312.0,57.24304884281992,680851413.8699312,0.058090446718888106,7,85558312
종각역,37.5702,126.9832,0.2,0,0.0,17,0.4502215377342665,0.0,0,2463,70702.35282176208,0.0,0.0,1.0,0,0,0.0,174139895,1.4140470564352416,4.051993839608398,16.9685646772229,8.572793632773475,매우낮음,최저위험,0.0,0.0,174139895.0,68.22012413813125,1385761253.9376814,0.0063820059542464246,17,174139895
종로3가역,37.5704,126.9922,0.2,0,0.0,108,1.0,0.0,0,2463,101398.82501015022,0.0,0.0,1.0,0,0,0.0,249745306,2.0279765002030046,9.0,24.335718002436057,14.36750130085262,낮음,하위험,0.0,0.0,249745306.0,114.33294259549655,1987409998.1948993,0.014725827650766571,108,249745306
종로5가역,37.571,127.0015,0.2,0,0.0,23,0.9628823552613339,0.0,0,2463,45565.20706455542,0.0,0.0,1.0,0,0,0.0,112227105,0.9113041412911084,8.665941197352005,10.9356496954933,9.460339171701458,매우낮음,최저위험,0.0,0.0,112227105.0,75.28298712510869,893074925.4821581,0.023926972228009376,23,112227105
종합운동장역,37.5111,127.0738,0.2,0,0.0,11,0.872808497924228,0.0,0,2463,33082.50182704019,0.0,0.0,1.0,0,0,0.0,81482202,0.6616500365408039,7.855276481318051,7.939800438489646,7.884859866328109,매우낮음,최저위험,0.0,0.0,81482202.0,62.745721165650984,648414761.115616,0.110665261035259,11,81482202
중계역,37.6451,127.0641,0.2,0,0.0,0,0.0,0.0,0,2463,26591.379618351602,0.0,0.0,1.0,0,0,0.0,65494568,0.531827592367032,0.0,6.381931108404385,2.2336758879415344,매우낮음,최저위험,0.0,0.0,65494568.0,17.775027941553684,521189212.1434134,0.11658117343722597,0,65494568
중곡역,37.5659,127.0843,0.2,0,0.0,0,0.0,0.0,0,2463,18984.783191230206,0.0,0.0,1.0,0,0,0.0,46759521,0.3796956638246041,0.0,4.55634796589525,1.5947217880633373,매우낮음,최저위험,0.0,0.0,46759521.0,12.6903927713313,372100445.1879642,0.10630169330730793,0,46759521
중랑역,37.5948,127.0757,0.2,0,0.0,2,0.2,0.0,0,2463,10482.832724319935,0.0,0.0,1.0,0,0,0.0,25819217,0.2096566544863987,1.7999999999999998,2.5158798538367844,2.0505579488428745,매우낮음,최저위험,0.0,0.0,25819217.0,16.317821682736064,205462800.61561483,0.1017161737385,2,25819217
중앙보훈병원역,37.5284,127.1484,0.2,0,0.0,3,0.7266951822520099,0.0,0,2129,17447.099577266323,0.0,0.0,1.0,0,0,0.0,37144875,0.34894199154532646,6.540256640268089,4.1873038985439175,5.716723180664629,매우낮음,최저위험,0.0,0.0,37144875.0,45.4922376245399,295589523.3390283,0.17460747406683444,3,37144875
중화역,37.6026,127.0793,0.2,0,0.0,21,0.917710185592437,0.0,0,2463,20388.41981323589,0.0,0.0,1.0,0,0,0.0,50216678,0.40776839626471784,8.259391670331931,4.893220755176614,7.081231850027571,매우낮음,최저위험,0.0,0.0,50216678.0,56.35065260558274,399611626.4677016,0.10754022503232068,21,50216678
증미역,37.5581,126.8606,0.2,0,0.0,13,0.9017029286993768,0.0,0,2463,13204.696305318717,0.0,0.0,1.0,0,0,0.0,32523167,0.26409392610637433,8.115326358294391,3.1691271132764918,6.384156622538127,매우낮음,최저위험,0.0,0.0,32523167.0,50.80350419749011,258811139.6526604,0.11770012744257075,13,32523167
증산역,37.5837,126.9095,0.2,0,0.0,3,0.4666666666666666,0.0,0,2463,18828.313438895657,0.0,0.0,1.0,0,0,0.0,46374136,0.37656626877791316,4.199999999999999,4.518795225334958,4.311578328867236,매우낮음,최저위험,0.0,0.0,46374136.0,34.3104501783557,369033648.8007907,0.07062641149032081,3,46374136
창동역,37.6533,127.0476,0.2,4,1.0,0,0.0,0.0,0,2463,52125.2017864393,0.0,0.0,1.0,0,0,0.0,128384372,1.042504035728786,12.0,12.510048428745433,12.178516950060903,낮음,하위험,0.0,0.0,128384372.0,96.91355860653128,1021650370.977436,0.11125825812047307,4,128384372
창신역,37.5794,127.0153,0.2,0,0.0,0,0.0,0.0,0,2463,6116.72269589931,0.0,0.0,1.0,0,0,0.0,15065488,0.1223344539179862,0.0,1.4680134470158344,0.513804706455542,매우낮음,최저위험,0.0,0.0,15065488.0,4.088727940813989,119887344.26458159,0.03946770831958945,0,15065488
천왕역,37.4869,126.8386,0.2,0,0.0,3,0.9196138982311637,0.0,0,2463,19106.602923264312,0.0,0.0,1.0,0,0,0.0,47059563,0.38213205846528625,8.276525084080472,4.585584701583435,6.984695950206509,매우낮음,최저위험,0.0,0.0,47059563.0,55.58244432346544,374488103.55972314,0.16052576117246242,3,47059563
천호역,37.5385,127.1239,0.2,0,0.0,11,0.7914989872673385,0.0,0,2463,70080.58424685342,0.0,0.0,1.0,0,0,0.0,172608479,1.4016116849370686,7.123490885406046,16.819340219244822,10.517038152249617,낮음,하위험,0.0,0.0,172608479.0,83.69193043082899,1373574632.6211805,0.14856247843921874,11,172608479
청구역,37.5609,127.0142,0.2,0,0.0,0,0.0,0.0,0,2463,14262.930166463662,0.0,0.0,1.0,0,0,0.0,35129597,0.2852586033292732,0.0,3.423103239951279,1.1980861339829476,매우낮음,최저위험,0.0,0.0,35129597.0,9.534066523662245,279552450.5688108,0.036630588310872,0,35129597
청담역,37.5195,127.0537,0.2,0,0.0,11,1.2898619513436307,0.0,0,2463,36876.3922046285,0.0,0.0,1.0,0,0,0.0,90826554,0.73752784409257,11.608757562092675,8.850334129110841,10.643309360549035,낮음,하위험,0.0,0.0,90826554.0,84.69676477938093,722774751.6551479,0.08910381585544762,11,90826554
청량리역,37.58,127.0477,0.2,0,0.0,30,0.9511866091898137,0.0,0,2463,76421.60129922858,0.0,0.0,1.0,0,0,0.0,188226404,1.5284320259845716,8.560679482708322,18.341184311814864,11.983856172895612,낮음,하위험,0.0,0.0,188226404.0,95.36449736093299,1497858130.850605,0.07099535196054484,30,188226404
총신대입구역,37.4868,126.9822,0.2,0,0.0,9,0.6309491491168424,0.0,0,4926,34583.33861144945,0.0,0.0,1.0,0,0,0.0,170357526,0.691666772228989,5.678542342051582,8.300001266747868,6.596052965695282,매우낮음,최저위험,0.0,0.0,170357526.0,52.489721719318005,1355662117.790304,0.07981058826997436,9,170357526
충무로역,37.5614,126.9941,0.2,0,0.0,2,0.874289055895147,0.0,0,2463,54600.8574908648,0.0,0.0,1.0,0,0,0.0,134481912,1.092017149817296,7.868601503056323,13.104205797807552,9.701063006219252,매우낮음,최저위험,0.0,0.0,134481912.0,77.1986065342858,1070173052.5624638,0.01688845759684011,2,134481912
충정로역,37.5598,126.9645,0.2,0,0.0,5,0.6598033180519101,0.0,0,2463,27792.70036540804,0.0,0.0,1.0,0,0,0.0,68453421,0.5558540073081608,5.93822986246719,6.67024808769793,6.194436241297949,매우낮음,최저위험,0.0,0.0,68453421.0,49.293757373507454,544735016.1850276,0.015071164520359916,5,68453421
태릉입구역,37.6185,127.0754,0.2,0,0.0,3,0.697600829697448,0.0,0,2463,27827.432805521723,0.0,0.0,1.0,0,0,0.0,68538967,0.5565486561104345,6.278407467277032,6.678583873325214,6.418469209393896,매우낮음,최저위험,0.0,0.0,68538967.0,51.076555087908396,545415769.6231146,0.11041177473440691,3,68538967
하계역,37.6365,127.068,0.2,0,0.0,5,0.8380450075343874,0.0,0,2463,33571.92691839221,0.0,0.0,1.0,0,0,0.0,82687656,0.6714385383678442,7.5424050678094865,8.057262460414131,7.722605155221113,매우낮음,최저위험,0.0,0.0,82687656.0,61.45453920001969,658007459.2541108,0.11401754250991666,5,82687656
학동역,37.5143,127.0319,0.2,1,1.0,3,0.4921609750338652,0.0,0,2463,41744.23183110028,0.0,0.0,1.0,0,0,0.0,102816043,0.8348846366220056,16.429448775304788,10.018615639464068,14.185657177760534,낮음,하위험,0.0,0.0,102816043.0,112.88587304238071,818184073.6299431,0.07503365911375888,4,102816043
학여울역,37.4969,127.0712,0.2,0,0.0,3,0.7333333333333333,0.0,0,2463,4710.558668290702,0.0,0.0,1.0,0,0,0.0,11602106,0.09421117336581404,6.6,1.1305340803897685,4.685686928136418,매우낮음,최저위험,0.0,0.0,11602106.0,37.287511819699475,92326626.00880687,0.11632024759259267,3,11602106
한강진역,37.5398,127.0018,0.2,0,0.0,12,0.5451590351753133,0.0,0,2463,18464.664636622005,0.0,0.0,1.0,0,0,0.0,45478469,0.3692932927324401,4.9064313165778195,4.431519512789282,4.740212185251831,매우낮음,최저위험,0.0,0.0,45478469.0,37.7214100293632,361906157.28007627,0.03576772287971805,12,45478469
한남역,37.5294,127.0092,0.2,0,0.0,9,0.2,0.0,0,2463,7527.28461226147,0.0,0.0,1.0,0,0,0.0,18539702,0.1505456922452294,1.7999999999999998,1.8065483069427528,1.8022919074299635,매우낮음,최저위험,0.0,0.0,18539702.0,14.342183298099966,147534260.8375349,0.048475251417609284,9,18539702
한성대입구역,37.5884,127.006,0.2,0,0.0,16,0.879599697153552,0.0,0,2463,27390.259439707672,0.0,0.0,1.0,0,0,0.0,67462209,0.5478051887941534,7.916397274381967,6.573662265529841,7.446440021283724,매우낮음,최저위험,0.0,0.0,67462209.0,59.25688689123115,536847201.71242744,0.03554729244260979,16,67462209
한성백제역,37.5165,127.1164,0.2,0,0.0,2,0.743999530527633,0.0,0,2129,4754.082198215125,0.0,0.0,1.0,0,0,0.0,10121441,0.09508164396430249,6.695995774748697,1.1409797275716298,4.751740158236724,매우낮음,최저위험,0.0,0.0,10121441.0,37.81314672358197,80543868.3181488,0.1471548843905662,2,10121441
한양대역,37.5557,127.0436,0.2,0,0.0,12,0.6395888680142405,0.0,0,2463,20206.96142915144,0.0,0.0,1.0,0,0,0.0,49769746,0.4041392285830288,5.756299812128164,4.849670742996346,5.438979637932028,매우낮음,최저위험,0.0,0.0,49769746.0,43.28202473765247,396055054.61640424,0.0664830805543814,12,49769746
한티역,37.4963,127.0529,0.2,4,1.0,4,0.8193029968958739,0.0,0,2463,28845.982541615915,0.0,0.0,1.0,0,0,0.0,71047655,0.5769196508323183,19.373726972062865,6.92303580998782,15.015985065336599,낮음,하위험,0.0,0.0,71047655.0,119.49341242711982,565379274.4168806,0.10265500474891569,8,71047655
합정역,37.5499,126.9145,0.2,0,0.0,6,0.8872834491494344,0.0,0,2463,90268.73731222087,0.0,0.0,1.0,0,0,0.0,222331900,1.8053747462444174,7.985551042344909,21.66449695493301,12.773182111750746,낮음,하위험,0.0,0.0,222331900.0,101.64575360490527,1769261044.6006482,0.06563390891908463,6,222331900
행당역,37.5574,127.0295,0.2,0,0.0,5,0.42717548637616465,0.0,0,2463,14467.29922858303,0.0,0.0,1.0,0,0,0.0,35632958,0.2893459845716606,3.8445793773854815,3.4721518148599273,3.7142297305015375,매우낮음,최저위험,0.0,0.0,35632958.0,29.556901069409896,283558070.1342948,0.05229780110100598,5,35632958
혜화역,37.582,127.0019,0.2,0,0.0,4,0.6899740691258512,0.0,0,2463,70821.36419001219,0.0,0.0,1.0,0,0,0.0,174433020,1.4164272838002439,6.209766622132661,16.997127405602928,9.985342896347253,매우낮음,최저위험,0.0,0.0,174433020.0,79.46083402106042,1388093868.572372,0.028486136979251078,4,174433020
홍대입구역,37.5569,126.9238,0.2,0,0.0,5,0.7363282467054096,55823.672374429225,48901537,2463,166366.1400730816,0.0,0.0,1.0,0,0,55.82367237442922,409759803,3.327322801461632,6.626954220348686,1044.7539763572654,100.0,매우높음,최고위험,0.0,324068.24700368743,8.379282528905328,795.7747154594766,3649910973.307623,0.05504361906705791,5,458661340
홍제역,37.5888,126.9442,0.2,0,0.0,3,1.0,0.0,0,2463,33596.496954933005,0.0,0.0,1.0,0,0,0.0,82748172,0.6719299390986601,9.0,8.06315926918392,8.672105744214372,매우낮음,최저위험,0.0,0.0,82748172.0,69.01042481036684,658489030.2809184,0.04049357973802782,3,82748172
화계역,37.6341,127.0175,0.2,0,0.0,2,1.0,0.0,0,2463,6248.686967113276,0.0,0.0,1.0,0,0,0.0,15390516,0.12497373934226552,9.0,1.4996848721071863,6.374889705237515,매우낮음,최저위험,0.0,0.0,15390516.0,50.729760412709304,122473834.90674523,0.07829438038582424,2,15390516
화곡역,37.5417,126.8405,0.2,0,0.0,10,1.0,0.0,0,2463,52003.6784409257,0.0,0.0,1.0,0,0,0.0,128085060,1.040073568818514,9.0,12.480882825822171,10.21830898903776,낮음,하위험,0.0,0.0,128085060.0,81.31471928228537,1019268521.7610999,0.13971861007037262,10,128085060
화랑대역,37.6198,127.0835,0.2,1,1.0,1,1.0,0.0,0,2463,20084.200568412503,0.0,0.0,1.0,0,0,0.0,49467386,0.40168401136825005,21.0,4.8202081364190015,15.337072847746647,낮음,하위험,0.0,0.0,49467386.0,122.04854781396853,393648950.186741,0.11819957698740446,2,49467386
회기역,37.5898,127.058,0.2,0,0.0,0,0.0,0.0,0,2463,50173.33089727974,0.0,0.0,1.0,0,0,0.0,123576914,1.0034666179455947,0.0,12.041599415347138,4.214559795371498,매우낮음,최저위험,0.0,0.0,123576914.0,33.538401219487035,983393835.7571021,0.0833240061446997,0,123576914
회현역,37.5588,126.9784,0.2,0,0.0,0,0.0,0.0,0,2463,51562.12383272432,0.0,0.0,1.0,0,0,0.0,126997511,1.0312424766544863,0.0,12.374909719853838,4.331218401948843,매우낮음,최저위험,0.0,0.0,126997511.0,34.4667409140369,1010614081.8008676,0.007710382610480264,0,126997511
효창공원앞역,37.5393,126.9614,0.2,0,0.0,10,0.7398580270396587,0.0,0,2463,18739.96264717824,0.0,0.0,1.0,0,0,0.0,46156528,0.3747992529435648,6.658722243356928,4.4975910353227775,5.902326320544976,매우낮음,최저위험,0.0,0.0,46156528.0,46.96922048280658,367301979.35797364,0.031865341673986886,10,46156528
흑석역,37.5092,126.9635,0.2,0,0.0,37,0.6987268618910476,172754.66564885495,113154306,2463,17387.64880227365,0.0,0.0,1.0,0,0,172.75466564885494,42825779,0.34775297604547295,6.288541757019428,3113.7570173919344,100.0,매우높음,최고위험,0.0,711575.578267554,0.3784723722447436,795.7747154594766,1241250077.5821998,0.0591061756502627,37,155980085
